{"type":"FeatureCollection","sector":"agua","kind":"point","features":[{"type":"Feature","properties":{"n":"agua_potable_rural","a":{"OBJECTID":"1","Cod_APR":"0","NR":"14","Region":"Región de Los Ríos","Provincia":"Valdivia","Comuna":"Valdivia","Servicio":"COMITÉ","Nombre":"CABO BLANCO","Año":"2015","Arranques":"87","Estado":"SEMICONCENTRADO","Fondos":"Sectorial","Ben_est":"348","ESTE":"136748","NORTE":"5588019","CLASE_SUEL":"0"}},"geometry":{"type":"Point","coordinates":[-73.2412709979999,-39.7802693689999]}},{"type":"Feature","properties":{"n":"agua_potable_rural","a":{"OBJECTID":"2","Cod_APR":"0","NR":"9","Region":"Región de La Araucanía","Provincia":"Cautín","Comuna":"FREIRE","Servicio":"COMITÉ","Nombre":"CALFUCO","Año":"2016","Arranques":"110","Estado":"SEMICONCENTRADO","Fondos":"Sectorial","Ben_est":"440","ESTE":"179967","NORTE":"5680984","CLASE_SUEL":"0"}},"geometry":{"type":"Point","coordinates":[-72.6933496189999,-38.9616836979999]}},{"type":"Feature","properties":{"n":"agua_potable_rural","a":{"OBJECTID":"3","Cod_APR":"0","NR":"10","Region":"Región de Los Lagos","Provincia":"Chiloé","Comuna":"Ancud","Servicio":"COMITÉ","Nombre":"CALLE","Año":"2015","Arranques":"74","Estado":"SEMICONCENTRADO","Fondos":"Sectorial","Ben_est":"296","ESTE":"83468","NORTE":"5355081","CLASE_SUEL":"0"}},"geometry":{"type":"Point","coordinates":[-74.016765011,-41.846528892]}},{"type":"Feature","properties":{"n":"agua_potable_rural","a":{"OBJECTID":"4","Cod_APR":"0","NR":"14","Region":"Región de Los Ríos","Provincia":"Valdivia","Comuna":"Panguipulli","Servicio":"COMITÉ","Nombre":"CAMINO A CHAUQUÉN","Año":"2016","Arranques":"103","Estado":"SEMICONCENTRADO","Fondos":"Sectorial","Ben_est":"412","ESTE":"232853","NORTE":"5614568","CLASE_SUEL":"0"}},"geometry":{"type":"Point","coordinates":[-72.110267688,-39.5769938129999]}},{"type":"Feature","properties":{"n":"agua_potable_rural","a":{"OBJECTID":"5","Cod_APR":"0","NR":"8","Region":"Región del Biobío","Provincia":"Biobío","Comuna":"Los Ángeles","Servicio":"COMITÉ","Nombre":"CANTARRANA","Año":"2016","Arranques":"134","Estado":"SEMICONCENTRADO","Fondos":"Sectorial","Ben_est":"536","ESTE":"219587","NORTE":"5921105","CLASE_SUEL":"0"}},"geometry":{"type":"Point","coordinates":[-72.143484053,-36.814395899]}},{"type":"Feature","properties":{"n":"agua_potable_rural","a":{"OBJECTID":"6","Cod_APR":"0","NR":"14","Region":"Región de Los Ríos","Provincia":"Valdivia","Comuna":"Panguipulli","Servicio":"COMITÉ","Nombre":"CARICUICUI","Año":"2015","Arranques":"76","Estado":"SEMICONCENTRADO","Fondos":"Sectorial","Ben_est":"304","ESTE":"214528","NORTE":"5614740","CLASE_SUEL":"0"}},"geometry":{"type":"Point","coordinates":[-72.323211839,-39.569549023]}},{"type":"Feature","properties":{"n":"agua_potable_rural","a":{"OBJECTID":"7","Cod_APR":"0","NR":"15","Region":"Región de Arica y Parinacota","Provincia":"Arica","Comuna":"Arica","Servicio":"COMITÉ","Nombre":"CERRO MORENO","Año":"2015","Arranques":"179","Estado":"SEMICONCENTRADO","Fondos":"Sectorial","Ben_est":"716","ESTE":"377446","NORTE":"7951703","CLASE_SUEL":"0"}},"geometry":{"type":"Point","coordinates":[-70.161068418,-18.521668688]}},{"type":"Feature","properties":{"n":"agua_potable_rural","a":{"OBJECTID":"8","Cod_APR":"0","NR":"6","Region":"Región del Libertador Bernardo O'Higgins","Provincia":"Cachapoal","Comuna":"Machalí","Servicio":"COMITÉ","Nombre":"CHACAYES","Año":"2016","Arranques":"126","Estado":"SEMICONCENTRADO","Fondos":"Sectorial","Ben_est":"504","ESTE":"268463","NORTE":"6147167","CLASE_SUEL":"0"}},"geometry":{"type":"Point","coordinates":[-71.530651166,-34.7914339619999]}},{"type":"Feature","properties":{"n":"agua_potable_rural","a":{"OBJECTID":"9","Cod_APR":"0","NR":"10","Region":"Región de Los Lagos","Provincia":"Chiloé","Comuna":"Ancud","Servicio":"COMITÉ","Nombre":"CHEPU","Año":"2015","Arranques":"77","Estado":"SEMICONCENTRADO","Fondos":"Sectorial","Ben_est":"308","ESTE":"88294","NORTE":"5332869","CLASE_SUEL":"0"}},"geometry":{"type":"Point","coordinates":[-73.974350349,-42.0483559849999]}},{"type":"Feature","properties":{"n":"agua_potable_rural","a":{"OBJECTID":"10","Cod_APR":"0","NR":"13","Region":"Región Metropolitana de Santiago","Provincia":"Chacabuco","Comuna":"Lampa","Servicio":"COMITÉ","Nombre":"CHORRILLOS LIPANGUE","Año":"2016","Arranques":"230","Estado":"SEMICONCENTRADO","Fondos":"Sectorial","Ben_est":"920","ESTE":"330533","NORTE":"6308233","CLASE_SUEL":"0"}},"geometry":{"type":"Point","coordinates":[-70.821254153,-33.351775566]}},{"type":"Feature","properties":{"n":"agua_potable_rural","a":{"OBJECTID":"11","Cod_APR":"0","NR":"10","Region":"Región de Los Lagos","Provincia":"Chiloé","Comuna":"Puqueldón","Servicio":"COMITÉ","Nombre":"CHULCHUY ALTO - LUCO","Año":"2016","Arranques":"106","Estado":"SEMICONCENTRADO","Fondos":"Sectorial","Ben_est":"424","ESTE":"114615","NORTE":"5267222","CLASE_SUEL":"0"}},"geometry":{"type":"Point","coordinates":[-73.701201123,-42.6509393229999]}},{"type":"Feature","properties":{"n":"agua_potable_rural","a":{"OBJECTID":"12","Cod_APR":"0","NR":"8","Region":"Región del Biobío","Provincia":"Ñuble","Comuna":"Coihueco","Servicio":"COMITÉ","Nombre":"COLEAL CENTRAL","Año":"2016","Arranques":"123","Estado":"SEMICONCENTRADO","Fondos":"Sectorial","Ben_est":"492","ESTE":"249672","NORTE":"5931763","CLASE_SUEL":"0"}},"geometry":{"type":"Point","coordinates":[-71.803113859,-36.7268664429999]}},{"type":"Feature","properties":{"n":"agua_potable_rural","a":{"OBJECTID":"13","Cod_APR":"0","NR":"8","Region":"Región del Biobío","Provincia":"Ñuble","Comuna":"Pinto","Servicio":"COMITÉ","Nombre":"CIRUELITO - EL CARDAL","Año":"2016","Arranques":"156","Estado":"SEMICONCENTRADO","Fondos":"Sectorial","Ben_est":"624","ESTE":"250207","NORTE":"5924894","CLASE_SUEL":"0"}},"geometry":{"type":"Point","coordinates":[-71.799377868,-36.788855945]}},{"type":"Feature","properties":{"n":"agua_potable_rural","a":{"OBJECTID":"14","Cod_APR":"0","NR":"10","Region":"Región de Los Lagos","Provincia":"Llanquihue","Comuna":"Maullín","Servicio":"COMITÉ","Nombre":"COYAM","Año":"2015","Arranques":"86","Estado":"SEMICONCENTRADO","Fondos":"Sectorial","Ben_est":"344","ESTE":"118735","NORTE":"5388030","CLASE_SUEL":"0"}},"geometry":{"type":"Point","coordinates":[-73.5723205469999,-41.5684621789999]}},{"type":"Feature","properties":{"n":"agua_potable_rural","a":{"OBJECTID":"15","Cod_APR":"0","NR":"14","Region":"Región de Los Ríos","Provincia":"Valdivia","Comuna":"Panguipulli","Servicio":"COMITÉ","Nombre":"COZ COZ","Año":"2016","Arranques":"209","Estado":"SEMICONCENTRADO","Fondos":"Sectorial","Ben_est":"836","ESTE":"217486","NORTE":"5608865","CLASE_SUEL":"0"}},"geometry":{"type":"Point","coordinates":[-72.291339754,-39.623374638]}},{"type":"Feature","properties":{"n":"agua_potable_rural","a":{"OBJECTID":"16","Cod_APR":"0","NR":"14","Region":"Región de Los Ríos","Provincia":"Ranco","Comuna":"La Unión","Servicio":"COMITÉ","Nombre":"CUDICO","Año":"2015","Arranques":"80","Estado":"SEMICONCENTRADO","Fondos":"Sectorial","Ben_est":"320","ESTE":"149163","NORTE":"5534718","CLASE_SUEL":"0"}},"geometry":{"type":"Point","coordinates":[-73.1254707799999,-40.264460689]}},{"type":"Feature","properties":{"n":"agua_potable_rural","a":{"OBJECTID":"17","Cod_APR":"0","NR":"9","Region":"Región de La Araucanía","Provincia":"Cautín","Comuna":"FREIRE","Servicio":"COMITÉ","Nombre":"CUI CUI CURA","Año":"2015","Arranques":"234","Estado":"SEMICONCENTRADO","Fondos":"Sectorial","Ben_est":"936","ESTE":"196431","NORTE":"5674722","CLASE_SUEL":"0"}},"geometry":{"type":"Point","coordinates":[-72.50646806,-39.0238695159999]}},{"type":"Feature","properties":{"n":"agua_potable_rural","a":{"OBJECTID":"18","Cod_APR":"0","NR":"9","Region":"Región de La Araucanía","Provincia":"Cautín","Comuna":"VILCÚN","Servicio":"COMITÉ","Nombre":"CURILEO","Año":"2016","Arranques":"193","Estado":"SEMICONCENTRADO","Fondos":"Sectorial","Ben_est":"772","ESTE":"206859","NORTE":"5715005","CLASE_SUEL":"0"}},"geometry":{"type":"Point","coordinates":[-72.369068601,-38.665044345]}},{"type":"Feature","properties":{"n":"agua_potable_rural","a":{"OBJECTID":"19","Cod_APR":"0","NR":"8","Region":"Región del Biobío","Provincia":"Biobío","Comuna":"Los Ángeles","Servicio":"COMITÉ","Nombre":"DIUTO","Año":"2014","Arranques":"134","Estado":"SEMICONCENTRADO","Fondos":"Sectorial","Ben_est":"536","ESTE":"210026","NORTE":"5853107","CLASE_SUEL":"0"}},"geometry":{"type":"Point","coordinates":[-72.2768027449999,-37.423465526]}},{"type":"Feature","properties":{"n":"agua_potable_rural","a":{"OBJECTID":"20","Cod_APR":"0","NR":"11","Region":"Región de Aysén del Gral.Ibañez del Campo","Provincia":"Coyhaique","Comuna":"Coyhaique","Servicio":"COMITÉ","Nombre":"EL CLARO PANGUILEMU","Año":"2016","Arranques":"165","Estado":"SEMICONCENTRADO","Fondos":"Sectorial","Ben_est":"660","ESTE":"257395","NORTE":"4947786","CLASE_SUEL":"0"}},"geometry":{"type":"Point","coordinates":[-72.1097712549999,-45.5811255739999]}},{"type":"Feature","properties":{"n":"agua_potable_rural","a":{"OBJECTID":"21","Cod_APR":"0","NR":"14","Region":"Región de Los Ríos","Provincia":"Valdivia","Comuna":"Paillaco","Servicio":"COMITÉ","Nombre":"EL MAITEN","Año":"2016","Arranques":"49","Estado":"SEMICONCENTRADO","Fondos":"Sectorial","Ben_est":"196","ESTE":"186627","NORTE":"5557480","CLASE_SUEL":"0"}},"geometry":{"type":"Point","coordinates":[-72.674781622,-40.0746719319999]}},{"type":"Feature","properties":{"n":"agua_potable_rural","a":{"OBJECTID":"22","Cod_APR":"0","NR":"8","Region":"Región del Biobío","Provincia":"Biobío","Comuna":"Los Ángeles","Servicio":"COMITÉ","Nombre":"EL PINO SAN MIGUEL","Año":"2016","Arranques":"217","Estado":"SEMICONCENTRADO","Fondos":"Sectorial","Ben_est":"868","ESTE":"211061","NORTE":"5845193","CLASE_SUEL":"0"}},"geometry":{"type":"Point","coordinates":[-72.268222373,-37.495013317]}},{"type":"Feature","properties":{"n":"agua_potable_rural","a":{"OBJECTID":"23","Cod_APR":"0","NR":"11","Region":"Región de Aysén del Gral.Ibañez del Campo","Provincia":"Coyhaique","Comuna":"Coyhaique","Servicio":"COMITÉ","Nombre":"EL SALTO","Año":"2015","Arranques":"41","Estado":"SEMICONCENTRADO","Fondos":"Sectorial","Ben_est":"164","ESTE":"263333","NORTE":"4932587","CLASE_SUEL":"0"}},"geometry":{"type":"Point","coordinates":[-72.041162089,-45.7197857149999]}},{"type":"Feature","properties":{"n":"agua_potable_rural","a":{"OBJECTID":"24","Cod_APR":"0","NR":"8","Region":"Región del Biobío","Provincia":"Ñuble","Comuna":"EL CARMEN","Servicio":"COMITÉ","Nombre":"EL ZARZAL - MONTEBLANCO - CALLE DÁVILA","Año":"2015","Arranques":"164","Estado":"SEMICONCENTRADO","Fondos":"Sectorial","Ben_est":"656","ESTE":"225690","NORTE":"5910152","CLASE_SUEL":"0"}},"geometry":{"type":"Point","coordinates":[-72.0791182529999,-36.914776221]}},{"type":"Feature","properties":{"n":"agua_potable_rural","a":{"OBJECTID":"25","Cod_APR":"0","NR":"8","Region":"Región del Biobío","Provincia":"Ñuble","Comuna":"Coihueco","Servicio":"COMITÉ","Nombre":"FRUTILLARES","Año":"2016","Arranques":"117","Estado":"SEMICONCENTRADO","Fondos":"Sectorial","Ben_est":"468","ESTE":"242973","NORTE":"5947187","CLASE_SUEL":"0"}},"geometry":{"type":"Point","coordinates":[-71.872874538,-36.5862057109999]}},{"type":"Feature","properties":{"n":"agua_potable_rural","a":{"OBJECTID":"26","Cod_APR":"0","NR":"9","Region":"Región de La Araucanía","Provincia":"Malleco","Comuna":"Collipulli","Servicio":"COMITÉ","Nombre":"HUAPITRIO","Año":"2016","Arranques":"256","Estado":"SEMICONCENTRADO","Fondos":"Sectorial","Ben_est":"1024","ESTE":"213661","NORTE":"5801052","CLASE_SUEL":"0"}},"geometry":{"type":"Point","coordinates":[-72.2562073409999,-37.893036412]}},{"type":"Feature","properties":{"n":"agua_potable_rural","a":{"OBJECTID":"27","Cod_APR":"0","NR":"9","Region":"Región de La Araucanía","Provincia":"Cautín","Comuna":"Loncoche","Servicio":"COMITÉ","Nombre":"HUAQUI","Año":"2016","Arranques":"177","Estado":"SEMICONCENTRADO","Fondos":"Sectorial","Ben_est":"708","ESTE":"209187","NORTE":"5633971","CLASE_SUEL":"0"}},"geometry":{"type":"Point","coordinates":[-72.376897287,-39.39476945]}},{"type":"Feature","properties":{"n":"agua_potable_rural","a":{"OBJECTID":"28","Cod_APR":"0","NR":"10","Region":"Región de Los Lagos","Provincia":"Llanquihue","Comuna":"Calbuco","Servicio":"COMITÉ","Nombre":"HUATRAL","Año":"2015","Arranques":"100","Estado":"SEMICONCENTRADO","Fondos":"Sectorial","Ben_est":"400","ESTE":"162881","NORTE":"5376275","CLASE_SUEL":"0"}},"geometry":{"type":"Point","coordinates":[-73.0508732019999,-41.693903248]}},{"type":"Feature","properties":{"n":"agua_potable_rural","a":{"OBJECTID":"29","Cod_APR":"0","NR":"7","Region":"Región del Maule","Provincia":"Linares","Comuna":"Longaví","Servicio":"COMITÉ","Nombre":"HUIMEO - LOS MARCOS","Año":"2015","Arranques":"192","Estado":"SEMICONCENTRADO","Fondos":"Sectorial","Ben_est":"768","ESTE":"251169","NORTE":"6031712","CLASE_SUEL":"0"}},"geometry":{"type":"Point","coordinates":[-71.754540455,-35.827223306]}},{"type":"Feature","properties":{"n":"agua_potable_rural","a":{"OBJECTID":"30","Cod_APR":"0","NR":"14","Region":"Región de Los Ríos","Provincia":"Valdivia","Comuna":"Panguipulli","Servicio":"COMITÉ","Nombre":"HUITAG","Año":"2016","Arranques":"111","Estado":"SEMICONCENTRADO","Fondos":"Sectorial","Ben_est":"444","ESTE":"218029","NORTE":"5621489","CLASE_SUEL":"0"}},"geometry":{"type":"Point","coordinates":[-72.2796551559999,-39.509990134]}},{"type":"Feature","properties":{"n":"agua_potable_rural","a":{"OBJECTID":"31","Cod_APR":"0","NR":"10","Region":"Región de Los Lagos","Provincia":"Chiloé","Comuna":"QUINCHAO","Servicio":"COMITÉ","Nombre":"ISLA CAGUACH","Año":"2016","Arranques":"133","Estado":"SEMICONCENTRADO","Fondos":"Sectorial","Ben_est":"532","ESTE":"148943","NORTE":"5287316","CLASE_SUEL":"0"}},"geometry":{"type":"Point","coordinates":[-73.271278041,-42.4868878259999]}},{"type":"Feature","properties":{"n":"agua_potable_rural","a":{"OBJECTID":"32","Cod_APR":"0","NR":"10","Region":"Región de Los Lagos","Provincia":"Llanquihue","Comuna":"Calbuco","Servicio":"COMITÉ","Nombre":"ISLA CHIDHUAPI","Año":"2016","Arranques":"144","Estado":"SEMICONCENTRADO","Fondos":"Sectorial","Ben_est":"576","ESTE":"159461","NORTE":"5361267","CLASE_SUEL":"0"}},"geometry":{"type":"Point","coordinates":[-73.100452161,-41.82727302]}},{"type":"Feature","properties":{"n":"agua_potable_rural","a":{"OBJECTID":"33","Cod_APR":"0","NR":"10","Region":"Región de Los Lagos","Provincia":"Llanquihue","Comuna":"Calbuco","Servicio":"COMITÉ","Nombre":"ISLA QUEULLÍN","Año":"2016","Arranques":"95","Estado":"SEMICONCENTRADO","Fondos":"Sectorial","Ben_est":"380","ESTE":"175946","NORTE":"5356886","CLASE_SUEL":"0"}},"geometry":{"type":"Point","coordinates":[-72.904810389,-41.873557153]}},{"type":"Feature","properties":{"n":"agua_potable_rural","a":{"OBJECTID":"34","Cod_APR":"0","NR":"3","Region":"Región de Atacama","Provincia":"Huasco","Comuna":"Alto del Carmen","Servicio":"COMITÉ","Nombre":"LA FRAGUA","Año":"2016","Arranques":"37","Estado":"SEMICONCENTRADO","Fondos":"Sectorial","Ben_est":"148","ESTE":"375216","NORTE":"6806872","CLASE_SUEL":"0"}},"geometry":{"type":"Point","coordinates":[-70.279371235,-28.859824116]}},{"type":"Feature","properties":{"n":"agua_potable_rural","a":{"OBJECTID":"35","Cod_APR":"0","NR":"7","Region":"Región del Maule","Provincia":"Curicó","Comuna":"Sagrada Familia","Servicio":"COMITÉ","Nombre":"LA HIGUERRILLA SANATORIO","Año":"2015","Arranques":"303","Estado":"SEMICONCENTRADO","Fondos":"Sectorial","Ben_est":"1212","ESTE":"284413","NORTE":"6123372","CLASE_SUEL":"0"}},"geometry":{"type":"Point","coordinates":[-71.362591766,-35.009324197]}},{"type":"Feature","properties":{"n":"agua_potable_rural","a":{"OBJECTID":"36","Cod_APR":"0","NR":"7","Region":"Región del Maule","Provincia":"Talca","Comuna":"San Clemente","Servicio":"COMITÉ","Nombre":"LA ISLA PICAZO","Año":"2016","Arranques":"126","Estado":"SEMICONCENTRADO","Fondos":"Sectorial","Ben_est":"504","ESTE":"292608","NORTE":"6077682","CLASE_SUEL":"0"}},"geometry":{"type":"Point","coordinates":[-71.284358271,-35.4227041679999]}},{"type":"Feature","properties":{"n":"agua_potable_rural","a":{"OBJECTID":"37","Cod_APR":"0","NR":"7","Region":"Región del Maule","Provincia":"Curicó","Comuna":"Romeral","Servicio":"COMITÉ","Nombre":"LA UNIÓN - CALLEJÓN ORTUZAR","Año":"2015","Arranques":"147","Estado":"SEMICONCENTRADO","Fondos":"Sectorial","Ben_est":"588","ESTE":"293332","NORTE":"6130891","CLASE_SUEL":"0"}},"geometry":{"type":"Point","coordinates":[-71.2630533619999,-34.9434377389999]}},{"type":"Feature","properties":{"n":"agua_potable_rural","a":{"OBJECTID":"38","Cod_APR":"0","NR":"7","Region":"Región del Maule","Provincia":"Curicó","Comuna":"Molina","Servicio":"COMITÉ","Nombre":"LA VALDESINA","Año":"2016","Arranques":"55","Estado":"SEMICONCENTRADO","Fondos":"Sectorial","Ben_est":"220","ESTE":"299910","NORTE":"6100249","CLASE_SUEL":"0"}},"geometry":{"type":"Point","coordinates":[-71.198469363,-35.220863386]}},{"type":"Feature","properties":{"n":"agua_potable_rural","a":{"OBJECTID":"39","Cod_APR":"0","NR":"10","Region":"Región de Los Lagos","Provincia":"Llanquihue","Comuna":"Maullín","Servicio":"COMITÉ","Nombre":"LAS CHILCAS","Año":"2015","Arranques":"78","Estado":"SEMICONCENTRADO","Fondos":"Sectorial","Ben_est":"312","ESTE":"121416","NORTE":"5376450","CLASE_SUEL":"0"}},"geometry":{"type":"Point","coordinates":[-73.547580476,-41.673704345]}},{"type":"Feature","properties":{"n":"agua_potable_rural","a":{"OBJECTID":"40","Cod_APR":"0","NR":"14","Region":"Región de Los Ríos","Provincia":"Ranco","Comuna":"La Unión","Servicio":"COMITÉ","Nombre":"LAS PATAGUAS DE PILMAIQUÉN","Año":"2015","Arranques":"83","Estado":"SEMICONCENTRADO","Fondos":"Sectorial","Ben_est":"332","ESTE":"179662","NORTE":"5535745","CLASE_SUEL":"0"}},"geometry":{"type":"Point","coordinates":[-72.767087879,-40.267457334]}},{"type":"Feature","properties":{"n":"agua_potable_rural","a":{"OBJECTID":"41","Cod_APR":"0","NR":"8","Region":"Región del Biobío","Provincia":"Ñuble","Comuna":"Chillán","Servicio":"COMITÉ","Nombre":"LAS VERTIENTES","Año":"2016","Arranques":"159","Estado":"SEMICONCENTRADO","Fondos":"Sectorial","Ben_est":"636","ESTE":"215272","NORTE":"5945008","CLASE_SUEL":"0"}},"geometry":{"type":"Point","coordinates":[-72.182895507,-36.597955633]}},{"type":"Feature","properties":{"n":"agua_potable_rural","a":{"OBJECTID":"42","Cod_APR":"0","NR":"14","Region":"Región de Los Ríos","Provincia":"Ranco","Comuna":"Río Bueno","Servicio":"COMITÉ","Nombre":"LOS COPIHUES","Año":"2015","Arranques":"73","Estado":"SEMICONCENTRADO","Fondos":"Sectorial","Ben_est":"292","ESTE":"192881","NORTE":"5530270","CLASE_SUEL":"0"}},"geometry":{"type":"Point","coordinates":[-72.614565882,-40.321640288]}},{"type":"Feature","properties":{"n":"agua_potable_rural","a":{"OBJECTID":"43","Cod_APR":"0","NR":"4","Region":"Región de Coquimbo","Provincia":"Limarí","Comuna":"Ovalle","Servicio":"COMITÉ","Nombre":"LOS LLANOS DE LA CHIMBA","Año":"2015","Arranques":"80","Estado":"SEMICONCENTRADO","Fondos":"Sectorial","Ben_est":"320","ESTE":"287191","NORTE":"6605863","CLASE_SUEL":"0"}},"geometry":{"type":"Point","coordinates":[-71.221070449,-30.6609970969999]}},{"type":"Feature","properties":{"n":"agua_potable_rural","a":{"OBJECTID":"44","Cod_APR":"0","NR":"14","Region":"Región de Los Ríos","Provincia":"Valdivia","Comuna":"Panguipulli","Servicio":"COMITÉ","Nombre":"LUMACO DE PANGUIPULLI","Año":"2015","Arranques":"117","Estado":"SEMICONCENTRADO","Fondos":"Sectorial","Ben_est":"468","ESTE":"205028","NORTE":"5598935","CLASE_SUEL":"0"}},"geometry":{"type":"Point","coordinates":[-72.440662289,-39.708488997]}},{"type":"Feature","properties":{"n":"agua_potable_rural","a":{"OBJECTID":"45","Cod_APR":"0","NR":"14","Region":"Región de Los Ríos","Provincia":"Valdivia","Comuna":"Paillaco","Servicio":"COMITÉ","Nombre":"LUMACO PAILLACO","Año":"2016","Arranques":"55","Estado":"SEMICONCENTRADO","Fondos":"Sectorial","Ben_est":"220","ESTE":"176394","NORTE":"5563633","CLASE_SUEL":"0"}},"geometry":{"type":"Point","coordinates":[-72.7914586319999,-40.015490783]}},{"type":"Feature","properties":{"n":"agua_potable_rural","a":{"OBJECTID":"46","Cod_APR":"0","NR":"8","Region":"Región del Biobío","Provincia":"Ñuble","Comuna":"Chillán","Servicio":"COMITÉ","Nombre":"ORO VERDE","Año":"2016","Arranques":"223","Estado":"SEMICONCENTRADO","Fondos":"Sectorial","Ben_est":"892","ESTE":"215331","NORTE":"5944971","CLASE_SUEL":"0"}},"geometry":{"type":"Point","coordinates":[-72.182245563,-36.598309743]}},{"type":"Feature","properties":{"n":"agua_potable_rural","a":{"OBJECTID":"47","Cod_APR":"0","NR":"15","Region":"Región de Arica y Parinacota","Provincia":"Arica","Comuna":"Arica","Servicio":"COMITÉ","Nombre":"PAGO DE GOMEZ","Año":"2016","Arranques":"106","Estado":"SEMICONCENTRADO","Fondos":"Sectorial","Ben_est":"424","ESTE":"371478","NORTE":"7951609","CLASE_SUEL":"0"}},"geometry":{"type":"Point","coordinates":[-70.217605665,-18.522162432]}},{"type":"Feature","properties":{"n":"agua_potable_rural","a":{"OBJECTID":"48","Cod_APR":"0","NR":"7","Region":"Región del Maule","Provincia":"Talca","Comuna":"San Rafael","Servicio":"COMITÉ","Nombre":"PALO BLANCO","Año":"2016","Arranques":"74","Estado":"SEMICONCENTRADO","Fondos":"Sectorial","Ben_est":"296","ESTE":"273417","NORTE":"6094376","CLASE_SUEL":"0"}},"geometry":{"type":"Point","coordinates":[-71.490946602,-35.268136275]}},{"type":"Feature","properties":{"n":"agua_potable_rural","a":{"OBJECTID":"49","Cod_APR":"0","NR":"4","Region":"Región de Coquimbo","Provincia":"Limarí","Comuna":"Combarbalá","Servicio":"COMITÉ","Nombre":"PAMA ARRIBA (SUEÑO CUMPLIDO)","Año":"2014","Arranques":"55","Estado":"SEMICONCENTRADO","Fondos":"Sectorial","Ben_est":"220","ESTE":"305709","NORTE":"6543123","CLASE_SUEL":"0"}},"geometry":{"type":"Point","coordinates":[-71.0398944189999,-31.2299200539999]}},{"type":"Feature","properties":{"n":"agua_potable_rural","a":{"OBJECTID":"50","Cod_APR":"0","NR":"14","Region":"Región de Los Ríos","Provincia":"Valdivia","Comuna":"Los Lagos","Servicio":"COMITÉ","Nombre":"PANCUL","Año":"2015","Arranques":"167","Estado":"SEMICONCENTRADO","Fondos":"Sectorial","Ben_est":"668","ESTE":"175499","NORTE":"5581706","CLASE_SUEL":"0"}},"geometry":{"type":"Point","coordinates":[-72.7929360809999,-39.852677386]}},{"type":"Feature","properties":{"n":"agua_potable_rural","a":{"OBJECTID":"51","Cod_APR":"0","NR":"11","Region":"Región de Aysén del Gral.Ibañez del Campo","Provincia":"General Carrera","Comuna":"Río Ibañez","Servicio":"COMITÉ","Nombre":"PENINSULA LEVICÁN","Año":"2016","Arranques":"30","Estado":"SEMICONCENTRADO","Fondos":"Sectorial","Ben_est":"120","ESTE":"279054","NORTE":"4861183","CLASE_SUEL":"0"}},"geometry":{"type":"Point","coordinates":[-71.872505914,-46.3668352289999]}},{"type":"Feature","properties":{"n":"agua_potable_rural","a":{"OBJECTID":"52","Cod_APR":"0","NR":"9","Region":"Región de La Araucanía","Provincia":"Arauco","Comuna":"CURANILAHUE - LOS ALAMOS","Servicio":"COMITÉ","Nombre":"PICHIARAUCO - VILLA LOS RÍOS","Año":"2016","Arranques":"237","Estado":"SEMICONCENTRADO","Fondos":"Sectorial","Ben_est":"948","ESTE":"109627","NORTE":"5837817","CLASE_SUEL":"0"}},"geometry":{"type":"Point","coordinates":[-73.416753913,-37.5240405979999]}},{"type":"Feature","properties":{"n":"agua_potable_rural","a":{"OBJECTID":"53","Cod_APR":"0","NR":"8","Region":"Región del Biobío","Provincia":"Ñuble","Comuna":"Cobquecura","Servicio":"COMITÉ","Nombre":"PILICURA","Año":"2015","Arranques":"86","Estado":"SEMICONCENTRADO","Fondos":"Sectorial","Ben_est":"344","ESTE":"157842","NORTE":"5995899","CLASE_SUEL":"0"}},"geometry":{"type":"Point","coordinates":[-72.801351035,-36.1213162679999]}},{"type":"Feature","properties":{"n":"agua_potable_rural","a":{"OBJECTID":"54","Cod_APR":"0","NR":"14","Region":"Región de Los Ríos","Provincia":"Ranco","Comuna":"La Unión","Servicio":"COMITÉ","Nombre":"PILMAIQUÉN TRAIGUEN","Año":"2015","Arranques":"89","Estado":"SEMICONCENTRADO","Fondos":"Sectorial","Ben_est":"356","ESTE":"186841","NORTE":"5540154","CLASE_SUEL":"0"}},"geometry":{"type":"Point","coordinates":[-72.6806813869999,-40.2305348899999]}},{"type":"Feature","properties":{"n":"agua_potable_rural","a":{"OBJECTID":"55","Cod_APR":"0","NR":"14","Region":"Región de Los Ríos","Provincia":"Ranco","Comuna":"Río Bueno","Servicio":"COMITÉ","Nombre":"PONHUIPA","Año":"2015","Arranques":"65","Estado":"SEMICONCENTRADO","Fondos":"Sectorial","Ben_est":"260","ESTE":"182488","NORTE":"5503365","CLASE_SUEL":"0"}},"geometry":{"type":"Point","coordinates":[-72.75007005,-40.5596275029999]}},{"type":"Feature","properties":{"n":"agua_potable_rural","a":{"OBJECTID":"56","Cod_APR":"0","NR":"4","Region":"Región de Coquimbo","Provincia":"Limarí","Comuna":"Ovalle","Servicio":"COMITÉ","Nombre":"POTRERILLOS BAJOS","Año":"2014","Arranques":"103","Estado":"SEMICONCENTRADO","Fondos":"Sectorial","Ben_est":"412","ESTE":"286942","NORTE":"6600168","CLASE_SUEL":"0"}},"geometry":{"type":"Point","coordinates":[-71.224845334,-30.7123035609999]}},{"type":"Feature","properties":{"n":"agua_potable_rural","a":{"OBJECTID":"57","Cod_APR":"0","NR":"9","Region":"Región de La Araucanía","Provincia":"MALLECO","Comuna":"Victoria","Servicio":"COMITÉ","Nombre":"PÚA","Año":"1977","Arranques":"240","Estado":"CONCENTRADO","Ben_est":"960","ESTE":"204683","NORTE":"5751706","CLASE_SUEL":"0"}},"geometry":{"type":"Point","coordinates":[-72.378558012,-38.334140449]}},{"type":"Feature","properties":{"n":"agua_potable_rural","a":{"OBJECTID":"58","Cod_APR":"0","NR":"10","Region":"Región de Los Lagos","Provincia":"Chiloé","Comuna":"Chonchi","Servicio":"COMITÉ","Nombre":"PUCATUE","Año":"2015","Arranques":"91","Estado":"SEMICONCENTRADO","Fondos":"Sectorial","Ben_est":"364","ESTE":"113504","NORTE":"5265790","CLASE_SUEL":"0"}},"geometry":{"type":"Point","coordinates":[-73.7156852269999,-42.663232977]}},{"type":"Feature","properties":{"n":"agua_potable_rural","a":{"OBJECTID":"59","Cod_APR":"0","NR":"9","Region":"Región de La Araucanía","Provincia":"Cautín","Comuna":"FREIRE","Servicio":"COMITÉ","Nombre":"PUQUEREO","Año":"2015","Arranques":"200","Estado":"SEMICONCENTRADO","Fondos":"Sectorial","Ben_est":"800","ESTE":"207090","NORTE":"5666698","CLASE_SUEL":"0"}},"geometry":{"type":"Point","coordinates":[-72.3870072509999,-39.099679247]}},{"type":"Feature","properties":{"n":"agua_potable_rural","a":{"OBJECTID":"60","Cod_APR":"0","NR":"8","Region":"Región del Biobío","Provincia":"Ñuble","Comuna":"Pemuco","Servicio":"COMITÉ","Nombre":"RELBÚN","Año":"2016","Arranques":"168","Estado":"SEMICONCENTRADO","Fondos":"Sectorial","Ben_est":"672","ESTE":"210168","NORTE":"5904371","CLASE_SUEL":"0"}},"geometry":{"type":"Point","coordinates":[-72.255318766,-36.962164969]}},{"type":"Feature","properties":{"n":"agua_potable_rural","a":{"OBJECTID":"61","Cod_APR":"0","NR":"7","Region":"Región del Maule","Provincia":"Linares","Comuna":"Parral","Servicio":"COMITÉ","Nombre":"RENAICO MONTEFLOR","Año":"2016","Arranques":"154","Estado":"SEMICONCENTRADO","Fondos":"Sectorial","Ben_est":"616","ESTE":"238356","NORTE":"5985044","CLASE_SUEL":"0"}},"geometry":{"type":"Point","coordinates":[-71.911659277,-36.244102051]}},{"type":"Feature","properties":{"n":"agua_potable_rural","a":{"OBJECTID":"62","Cod_APR":"0","NR":"8","Region":"Región del Biobío","Provincia":"Biobío","Comuna":"Los Ángeles","Servicio":"COMITÉ","Nombre":"SAN ANTONIO - LAS QUINTAS - ALLIPEN","Año":"2015","Arranques":"278","Estado":"SEMICONCENTRADO","Fondos":"Sectorial","Ben_est":"1112","ESTE":"197043","NORTE":"5851507","CLASE_SUEL":"0"}},"geometry":{"type":"Point","coordinates":[-72.423934308,-37.4337134259999]}},{"type":"Feature","properties":{"n":"agua_potable_rural","a":{"OBJECTID":"63","Cod_APR":"0","NR":"14","Region":"Región de Los Ríos","Provincia":"Valdivia","Comuna":"Paillaco","Servicio":"COMITÉ","Nombre":"SANTA ROSA GRANDE","Año":"2016","Arranques":"103","Estado":"SEMICONCENTRADO","Fondos":"Sectorial","Ben_est":"412","ESTE":"194778","NORTE":"5550760","CLASE_SUEL":"0"}},"geometry":{"type":"Point","coordinates":[-72.582549666,-40.138092827]}},{"type":"Feature","properties":{"n":"agua_potable_rural","a":{"OBJECTID":"64","Cod_APR":"0","NR":"14","Region":"Región de Los Ríos","Provincia":"Valdivia","Comuna":"Paillaco","Servicio":"COMITÉ","Nombre":"STA. ROSA CHICA","Año":"2016","Arranques":"116","Estado":"SEMICONCENTRADO","Fondos":"Sectorial","Ben_est":"464","ESTE":"193727","NORTE":"5545609","CLASE_SUEL":"0"}},"geometry":{"type":"Point","coordinates":[-72.5973032489999,-40.1840266089999]}},{"type":"Feature","properties":{"n":"agua_potable_rural","a":{"OBJECTID":"65","Cod_APR":"0","NR":"12","Region":"Región de Magallanes y Antártica Chilena","Provincia":"Última Esperanza","Comuna":"Natales","Servicio":"COMITÉ","Nombre":"RENOVAL","Año":"2013","Arranques":"19","Estado":"CONCENTRADO","Fondos":"FNDR","Ben_est":"76","ESTE":"299512","NORTE":"4230734","CLASE_SUEL":"0"}},"geometry":{"type":"Point","coordinates":[-71.9231780279999,-52.0377080009999]}},{"type":"Feature","properties":{"n":"agua_potable_rural","a":{"OBJECTID":"66","Cod_APR":"0","NR":"1","Region":"Región de Tarapacá","Provincia":"Iquique","Comuna":"Iquique","Servicio":"COMITÉ","Nombre":"CHANAVAYITA","Año":"2014","Arranques":"274","Estado":"SEMICONCENTRADO","Fondos":"Sectorial","Ben_est":"1096","ESTE":"382149","NORTE":"7688500","CLASE_SUEL":"0"}},"geometry":{"type":"Point","coordinates":[-70.133150625,-20.9000343029999]}},{"type":"Feature","properties":{"n":"agua_potable_rural","a":{"OBJECTID":"67","Cod_APR":"0","NR":"10","Region":"Región de Los Lagos","Provincia":"Chiloé","Comuna":"Ancud","Servicio":"COMITÉ","Nombre":"COQUIAO","Año":"2016","Arranques":"91","Estado":"SEMICONCENTRADO","Fondos":"Sectorial","Ben_est":"364","ESTE":"102051","NORTE":"5340634","CLASE_SUEL":"0"}},"geometry":{"type":"Point","coordinates":[-73.8034537199999,-41.985745854]}},{"type":"Feature","properties":{"n":"agua_potable_rural","a":{"OBJECTID":"68","Cod_APR":"0","NR":"11","Region":"Región de Aysén del Gral.Ibañez del Campo","Provincia":"Aysén","Comuna":"Aysén","Servicio":"COMITÉ","Nombre":"GRAN PANGAL","Año":"2016","Arranques":"93","Estado":"SEMICONCENTRADO","Fondos":"Sectorial","Ben_est":"372","ESTE":"212530","NORTE":"4970790","CLASE_SUEL":"0"}},"geometry":{"type":"Point","coordinates":[-72.6703040739999,-45.3574049819999]}},{"type":"Feature","properties":{"n":"agua_potable_rural","a":{"OBJECTID":"69","Cod_APR":"0","NR":"8","Region":"Región del Biobío","Provincia":"Ñuble","Comuna":"YUNGAY","Servicio":"COMITÉ","Nombre":"RINCONADA DE ITATA","Año":"2015","Arranques":"70","Estado":"SEMICONCENTRADO","Fondos":"Sectorial","Ben_est":"280","ESTE":"224452","NORTE":"5888263","CLASE_SUEL":"0"}},"geometry":{"type":"Point","coordinates":[-72.100998186,-37.111441579]}},{"type":"Feature","properties":{"n":"agua_potable_rural","a":{"OBJECTID":"70","Cod_APR":"1010101","NR":"1","Region":"Región de Tarapacá","Provincia":"Iquique","Comuna":"Iquique","Servicio":"COMITÉ","Nombre":"CALETA CHANAVAYA","Año":"2012","Arranques":"56","Estado":"SEMICONCENTRADO","Fondos":"Sectorial","Ben_est":"224","ESTE":"381620","NORTE":"7688750","CLASE_SUEL":"0"}},"geometry":{"type":"Point","coordinates":[-70.138219229,-20.8977420159999]}},{"type":"Feature","properties":{"n":"agua_potable_rural","a":{"OBJECTID":"71","Cod_APR":"1010102","NR":"1","Region":"Región de Tarapacá","Provincia":"Iquique","Comuna":"Iquique","Servicio":"COMITÉ","Nombre":"CALETA RIO SECO","Año":"2012","Arranques":"121","Estado":"SEMICONCENTRADO","Fondos":"Sectorial","Ben_est":"484","ESTE":"379480","NORTE":"7677800","CLASE_SUEL":"0"}},"geometry":{"type":"Point","coordinates":[-70.1595538349999,-20.996524381]}},{"type":"Feature","properties":{"n":"agua_potable_rural","a":{"OBJECTID":"72","Cod_APR":"1020101","NR":"1","Region":"Región de Tarapacá","Provincia":"Tamarugal","Comuna":"Pozo Almonte","Servicio":"COMITÉ","Nombre":"GUATACONDO","Año":"2003","Arranques":"110","Estado":"CONCENTRADO","Ben_est":"440","ESTE":"494467","NORTE":"7685848","CLASE_SUEL":"0"}},"geometry":{"type":"Point","coordinates":[-69.053212792,-20.927745622]}},{"type":"Feature","properties":{"n":"agua_potable_rural","a":{"OBJECTID":"73","Cod_APR":"1020102","NR":"1","Region":"Región de Tarapacá","Provincia":"Tamarugal","Comuna":"Pozo Almonte","Servicio":"COMITÉ","Nombre":"MAMIÑA","Año":"1982","Arranques":"350","Estado":"CONCENTRADO","Ben_est":"1400","ESTE":"477856","NORTE":"7780709","CLASE_SUEL":"0"}},"geometry":{"type":"Point","coordinates":[-69.211785145,-20.070446558]}},{"type":"Feature","properties":{"n":"agua_potable_rural","a":{"OBJECTID":"74","Cod_APR":"1020201","NR":"1","Region":"Región de Tarapacá","Provincia":"Tamarugal","Comuna":"Camiña","Servicio":"COMITÉ","Nombre":"CAMIÑA","Año":"1982","Arranques":"250","Estado":"CONCENTRADO","Ben_est":"1000","ESTE":"455382","NORTE":"7864643","CLASE_SUEL":"0"}},"geometry":{"type":"Point","coordinates":[-69.4247181069999,-19.311567678]}},{"type":"Feature","properties":{"n":"agua_potable_rural","a":{"OBJECTID":"75","Cod_APR":"1020202","NR":"1","Region":"Región de Tarapacá","Provincia":"Tamarugal","Comuna":"Camiña","Servicio":"COMITÉ","Nombre":"CHAPIQUILTA","Año":"1984","Arranques":"65","Estado":"CONCENTRADO","Ben_est":"260","ESTE":"456944","NORTE":"7863985","CLASE_SUEL":"0"}},"geometry":{"type":"Point","coordinates":[-69.409864559,-19.3175481179999]}},{"type":"Feature","properties":{"n":"agua_potable_rural","a":{"OBJECTID":"76","Cod_APR":"1020203","NR":"1","Region":"Región de Tarapacá","Provincia":"Tamarugal","Comuna":"Camiña","Servicio":"COMITÉ","Nombre":"MOQUELLA","Año":"1982","Arranques":"150","Estado":"CONCENTRADO","Ben_est":"600","ESTE":"446794","NORTE":"7860783","CLASE_SUEL":"0"}},"geometry":{"type":"Point","coordinates":[-69.5065724999999,-19.346241958]}},{"type":"Feature","properties":{"n":"agua_potable_rural","a":{"OBJECTID":"77","Cod_APR":"1020301","NR":"1","Region":"Región de Tarapacá","Provincia":"Tamarugal","Comuna":"Colchane","Servicio":"COMITÉ","Nombre":"CARIQUIMA","Año":"1990","Arranques":"123","Estado":"CONCENTRADO","Ben_est":"492","ESTE":"537298","NORTE":"7847325","CLASE_SUEL":"0"}},"geometry":{"type":"Point","coordinates":[-68.644620314,-19.468221517]}},{"type":"Feature","properties":{"n":"agua_potable_rural","a":{"OBJECTID":"78","Cod_APR":"1020302","NR":"1","Region":"Región de Tarapacá","Provincia":"Tamarugal","Comuna":"Colchane","Servicio":"COMITÉ","Nombre":"ENQUELGA","Año":"1992","Arranques":"50","Estado":"CONCENTRADO","Ben_est":"200","ESTE":"520580","NORTE":"7873785","CLASE_SUEL":"0"}},"geometry":{"type":"Point","coordinates":[-68.8041958479999,-19.229337164]}},{"type":"Feature","properties":{"n":"agua_potable_rural","a":{"OBJECTID":"79","Cod_APR":"1020303","NR":"1","Region":"Región de Tarapacá","Provincia":"Tamarugal","Comuna":"Colchane","Servicio":"COMITÉ","Nombre":"MILQUILJAWA","Año":"1997","Arranques":"380","Estado":"CONCENTRADO","Ben_est":"1520","ESTE":"532376","NORTE":"7868527","CLASE_SUEL":"0"}},"geometry":{"type":"Point","coordinates":[-68.691877523,-19.2767009469999]}},{"type":"Feature","properties":{"n":"agua_potable_rural","a":{"OBJECTID":"80","Cod_APR":"1020401","NR":"1","Region":"Región de Tarapacá","Provincia":"Tamarugal","Comuna":"Huara","Servicio":"COMITÉ","Nombre":"CHIAPA","Año":"2003","Arranques":"123","Estado":"CONCENTRADO","Ben_est":"492","ESTE":"478392","NORTE":"7839649","CLASE_SUEL":"0"}},"geometry":{"type":"Point","coordinates":[-69.2059722979999,-19.537821999]}},{"type":"Feature","properties":{"n":"agua_potable_rural","a":{"OBJECTID":"81","Cod_APR":"1020402","NR":"1","Region":"Región de Tarapacá","Provincia":"Tamarugal","Comuna":"Huara","Servicio":"COMITÉ","Nombre":"HUAVIÑA","Año":"2006","Arranques":"30","Estado":"CONCENTRADO","Ben_est":"120","ESTE":"477668","NORTE":"7811624","CLASE_SUEL":"0"}},"geometry":{"type":"Point","coordinates":[-69.213208111,-19.7910749449999]}},{"type":"Feature","properties":{"n":"agua_potable_rural","a":{"OBJECTID":"82","Cod_APR":"1020403","NR":"1","Region":"Región de Tarapacá","Provincia":"Tamarugal","Comuna":"Huara","Servicio":"COMITÉ","Nombre":"JAIÑA","Año":"2003","Arranques":"98","Estado":"CONCENTRADO","Ben_est":"392","ESTE":"474395","NORTE":"7837614","CLASE_SUEL":"0"}},"geometry":{"type":"Point","coordinates":[-69.2441000109999,-19.556164979]}},{"type":"Feature","properties":{"n":"agua_potable_rural","a":{"OBJECTID":"83","Cod_APR":"1020404","NR":"1","Region":"Región de Tarapacá","Provincia":"Tamarugal","Comuna":"Huara","Servicio":"COMITÉ","Nombre":"LAONZANA","Año":"2006","Arranques":"77","Estado":"CONCENTRADO","Ben_est":"308","ESTE":"465171","NORTE":"7802947","CLASE_SUEL":"0"}},"geometry":{"type":"Point","coordinates":[-69.3326814339999,-19.8693043549999]}},{"type":"Feature","properties":{"n":"agua_potable_rural","a":{"OBJECTID":"84","Cod_APR":"1020405","NR":"1","Region":"Región de Tarapacá","Provincia":"Tamarugal","Comuna":"Huara","Servicio":"COMITÉ","Nombre":"LIMAXIÑA","Año":"2006","Arranques":"93","Estado":"CONCENTRADO","Ben_est":"372","ESTE":"480837","NORTE":"7812652","CLASE_SUEL":"0"}},"geometry":{"type":"Point","coordinates":[-69.1829425449999,-19.781818577]}},{"type":"Feature","properties":{"n":"agua_potable_rural","a":{"OBJECTID":"85","Cod_APR":"1020406","NR":"1","Region":"Región de Tarapacá","Provincia":"Tamarugal","Comuna":"Huara","Servicio":"COMITÉ","Nombre":"PACHICA","Año":"2002","Arranques":"77","Estado":"CONCENTRADO","Ben_est":"308","ESTE":"454763","NORTE":"7802912","CLASE_SUEL":"0"}},"geometry":{"type":"Point","coordinates":[-69.4320960909999,-19.869407291]}},{"type":"Feature","properties":{"n":"agua_potable_rural","a":{"OBJECTID":"86","Cod_APR":"1020407","NR":"1","Region":"Región de Tarapacá","Provincia":"Tamarugal","Comuna":"Huara","Servicio":"COMITÉ","Nombre":"SIBAYA","Año":"1984","Arranques":"101","Estado":"CONCENTRADO","Ben_est":"404","ESTE":"481752","NORTE":"7812583","CLASE_SUEL":"0"}},"geometry":{"type":"Point","coordinates":[-69.174208065,-19.7824508429999]}},{"type":"Feature","properties":{"n":"agua_potable_rural","a":{"OBJECTID":"87","Cod_APR":"1020408","NR":"1","Region":"Región de Tarapacá","Provincia":"Tamarugal","Comuna":"Huara","Servicio":"COMITÉ","Nombre":"TARAPACÁ","Año":"1984","Arranques":"250","Estado":"CONCENTRADO","Ben_est":"1000","ESTE":"447131","NORTE":"7797294","CLASE_SUEL":"0"}},"geometry":{"type":"Point","coordinates":[-69.5051546839999,-19.919982336]}},{"type":"Feature","properties":{"n":"agua_potable_rural","a":{"OBJECTID":"88","Cod_APR":"1020409","NR":"1","Region":"Región de Tarapacá","Provincia":"Tamarugal","Comuna":"Huara","Servicio":"COMITÉ","Nombre":"HUARASIÑA","Año":"2012","Arranques":"81","Estado":"SEMICONCENTRADO","Fondos":"Sectorial","Ben_est":"324","ESTE":"443280","NORTE":"7793900","CLASE_SUEL":"0"}},"geometry":{"type":"Point","coordinates":[-69.542053778,-19.9505433579999]}},{"type":"Feature","properties":{"n":"agua_potable_rural","a":{"OBJECTID":"89","Cod_APR":"0","NR":"1","Region":"Región de Tarapacá","Provincia":"Tamarugal","Comuna":"Pozo Almonte","Servicio":"COMITÉ","Nombre":"LA TIRANA","Año":"2013","Arranques":"258","Estado":"SEMICONCENTRADO","Fondos":"Sectorial","Ben_est":"1032","ESTE":"431781","NORTE":"7748648","CLASE_SUEL":"0"}},"geometry":{"type":"Point","coordinates":[-69.653640803,-20.3590683109999]}},{"type":"Feature","properties":{"n":"agua_potable_rural","a":{"OBJECTID":"90","Cod_APR":"2020101","NR":"2","Region":"Región de Antofagasta","Provincia":"El Loa","Comuna":"Calama","Servicio":"COMITÉ","Nombre":"CASPANA","Año":"1985","Arranques":"95","Estado":"CONCENTRADO","Ben_est":"380","ESTE":"580965","NORTE":"7528949","CLASE_SUEL":"0"}},"geometry":{"type":"Point","coordinates":[-68.213724277,-22.3434223529999]}},{"type":"Feature","properties":{"n":"agua_potable_rural","a":{"OBJECTID":"91","Cod_APR":"2020102","NR":"2","Region":"Región de Antofagasta","Provincia":"El Loa","Comuna":"Calama","Servicio":"COMITÉ","Nombre":"LASANA-CHIU CHIU","Año":"1997","Arranques":"265","Estado":"CONCENTRADO","Ben_est":"1060","ESTE":"538824","NORTE":"7537650","CLASE_SUEL":"0"}},"geometry":{"type":"Point","coordinates":[-68.624453704,-22.2666850909999]}},{"type":"Feature","properties":{"n":"agua_potable_rural","a":{"OBJECTID":"92","Cod_APR":"2020103","NR":"2","Region":"Región de Antofagasta","Provincia":"El Loa","Comuna":"Calama","Servicio":"COMITÉ","Nombre":"TOCONCE","Año":"2004","Arranques":"78","Estado":"CONCENTRADO","Ben_est":"312","ESTE":"585632","NORTE":"7536344","CLASE_SUEL":"0"}},"geometry":{"type":"Point","coordinates":[-68.1688006699999,-22.276395039]}},{"type":"Feature","properties":{"n":"agua_potable_rural","a":{"OBJECTID":"93","Cod_APR":"2020201","NR":"2","Region":"Región de Antofagasta","Provincia":"El Loa","Comuna":"Ollagüe","Servicio":"COMITÉ","Nombre":"OLLAGÜE","Año":"2005","Arranques":"75","Estado":"CONCENTRADO","Ben_est":"300","ESTE":"576955","NORTE":"7651984","CLASE_SUEL":"0"}},"geometry":{"type":"Point","coordinates":[-68.258404067,-21.2321045379999]}},{"type":"Feature","properties":{"n":"agua_potable_rural","a":{"OBJECTID":"94","Cod_APR":"2020301","NR":"2","Region":"Región de Antofagasta","Provincia":"El Loa","Comuna":"San Pedro de Atacama","Servicio":"COMITÉ","Nombre":"PEINE","Año":"2009","Arranques":"155","Estado":"CONCENTRADO","Ben_est":"620","ESTE":"596438","NORTE":"7390382","CLASE_SUEL":"0"}},"geometry":{"type":"Point","coordinates":[-68.0548132769999,-23.59419622]}},{"type":"Feature","properties":{"n":"agua_potable_rural","a":{"OBJECTID":"95","Cod_APR":"2020302","NR":"2","Region":"Región de Antofagasta","Provincia":"El Loa","Comuna":"San Pedro de Atacama","Servicio":"COMITÉ","Nombre":"SAN PEDRO DE ATACAMA","Año":"1998","Arranques":"1402","Estado":"CONCENTRADO","Ben_est":"5608","ESTE":"582444","NORTE":"7465750","CLASE_SUEL":"0"}},"geometry":{"type":"Point","coordinates":[-68.196049527,-22.914228635]}},{"type":"Feature","properties":{"n":"agua_potable_rural","a":{"OBJECTID":"96","Cod_APR":"2020303","NR":"2","Region":"Región de Antofagasta","Provincia":"El Loa","Comuna":"San Pedro de Atacama","Servicio":"COMITÉ","Nombre":"SOCAIRE","Año":"1985","Arranques":"93","Estado":"CONCENTRADO","Ben_est":"372","ESTE":"613187","NORTE":"7390324","CLASE_SUEL":"0"}},"geometry":{"type":"Point","coordinates":[-67.8906744179999,-23.5936344199999]}},{"type":"Feature","properties":{"n":"agua_potable_rural","a":{"OBJECTID":"97","Cod_APR":"2020304","NR":"2","Region":"Región de Antofagasta","Provincia":"El Loa","Comuna":"San Pedro de Atacama","Servicio":"COMITÉ","Nombre":"TOCONAO","Año":"1994","Arranques":"330","Estado":"CONCENTRADO","Ben_est":"1320","ESTE":"602123","NORTE":"7434729","CLASE_SUEL":"0"}},"geometry":{"type":"Point","coordinates":[-68.002106692,-23.193322166]}},{"type":"Feature","properties":{"n":"agua_potable_rural","a":{"OBJECTID":"98","Cod_APR":"2010401","NR":"2","Region":"Región de Antofagasta","Provincia":"Antofagasta","Comuna":"Taltal","Servicio":"COMITÉ","Nombre":"PAPOSO","Año":"2013","Arranques":"144","Estado":"SEMICONCENTRADO","Fondos":"Sectorial","Ben_est":"576","ESTE":"352199","NORTE":"7233325","CLASE_SUEL":"0"}},"geometry":{"type":"Point","coordinates":[-70.4646817989999,-25.0083853049999]}},{"type":"Feature","properties":{"n":"agua_potable_rural","a":{"OBJECTID":"99","Cod_APR":"0","NR":"2","Region":"Región de Antofagasta","Provincia":"El Loa","Comuna":"Calama","Servicio":"COMITÉ","Nombre":"CALAMA RURAL","Año":"2013","Arranques":"68","Estado":"SEMICONCENTRADO","Fondos":"Sectorial","Ben_est":"272","ESTE":"503245","NORTE":"7513266","CLASE_SUEL":"0"}},"geometry":{"type":"Point","coordinates":[-68.9684537059999,-22.487009207]}},{"type":"Feature","properties":{"n":"agua_potable_rural","a":{"OBJECTID":"100","Cod_APR":"3010101","NR":"3","Region":"Región de Atacama","Provincia":"Copiapó","Comuna":"Copiapó","Servicio":"COMITÉ","Nombre":"TOTORAL","Año":"1980","Arranques":"73","Estado":"CONCENTRADO","Ben_est":"292","ESTE":"307671","NORTE":"6912231","CLASE_SUEL":"0"}},"geometry":{"type":"Point","coordinates":[-70.954105208,-27.900983405]}},{"type":"Feature","properties":{"n":"agua_potable_rural","a":{"OBJECTID":"101","Cod_APR":"3010102","NR":"3","Region":"Región de Atacama","Provincia":"Copiapó","Comuna":"Copiapó","Servicio":"COMITÉ","Nombre":"SAN PEDRO","Año":"2010","Arranques":"143","Estado":"SEMICONCENTRADO","Fondos":"Sectorial","Ben_est":"572","ESTE":"348215","NORTE":"6976945","CLASE_SUEL":"0"}},"geometry":{"type":"Point","coordinates":[-70.534146474,-27.32219515]}},{"type":"Feature","properties":{"n":"agua_potable_rural","a":{"OBJECTID":"102","Cod_APR":"3010301","NR":"3","Region":"Región de Atacama","Provincia":"Copiapó","Comuna":"Tierra Amarilla","Servicio":"COMITÉ","Nombre":"LOS LOROS","Año":"1985","Arranques":"401","Estado":"CONCENTRADO","Ben_est":"1604","ESTE":"391268","NORTE":"6921148","CLASE_SUEL":"0"}},"geometry":{"type":"Point","coordinates":[-70.10410322,-27.8299281079999]}},{"type":"Feature","properties":{"n":"agua_potable_rural","a":{"OBJECTID":"103","Cod_APR":"3010302","NR":"3","Region":"Región de Atacama","Provincia":"Copiapó","Comuna":"Tierra Amarilla","Servicio":"COMITÉ","Nombre":"NANTOCO","Año":"2000","Arranques":"65","Estado":"CONCENTRADO","Ben_est":"260","ESTE":"374507","NORTE":"6951725","CLASE_SUEL":"0"}},"geometry":{"type":"Point","coordinates":[-70.271067719,-27.5524904339999]}},{"type":"Feature","properties":{"n":"agua_potable_rural","a":{"OBJECTID":"104","Cod_APR":"3030101","NR":"3","Region":"Región de Atacama","Provincia":"Huasco","Comuna":"Vallenar","Servicio":"COMITÉ","Nombre":"BUENA ESPERANZA","Año":"1985","Arranques":"101","Estado":"CONCENTRADO","Ben_est":"404","ESTE":"320856","NORTE":"6838827","CLASE_SUEL":"0"}},"geometry":{"type":"Point","coordinates":[-70.8314772529999,-28.5650969779999]}},{"type":"Feature","properties":{"n":"agua_potable_rural","a":{"OBJECTID":"105","Cod_APR":"3030102","NR":"3","Region":"Región de Atacama","Provincia":"Huasco","Comuna":"Vallenar","Servicio":"COMITÉ","Nombre":"CACHIYUYO","Año":"1983","Arranques":"54","Estado":"CONCENTRADO","Ben_est":"216","ESTE":"315141","NORTE":"6786305","CLASE_SUEL":"0"}},"geometry":{"type":"Point","coordinates":[-70.898449489,-29.038111936]}},{"type":"Feature","properties":{"n":"agua_potable_rural","a":{"OBJECTID":"107","Cod_APR":"3030104","NR":"3","Region":"Región de Atacama","Provincia":"Huasco","Comuna":"Vallenar","Servicio":"COMITÉ","Nombre":"CHAÑAR BLANCO","Año":"1986","Arranques":"69","Estado":"CONCENTRADO","Ben_est":"276","ESTE":"334408","NORTE":"6829997","CLASE_SUEL":"0"}},"geometry":{"type":"Point","coordinates":[-70.694258288,-28.6465647599999]}},{"type":"Feature","properties":{"n":"agua_potable_rural","a":{"OBJECTID":"108","Cod_APR":"3030105","NR":"3","Region":"Región de Atacama","Provincia":"Huasco","Comuna":"Vallenar","Servicio":"COMITÉ","Nombre":"CUATRO PALOMAS-HACIENDA COMPAÑÍA","Año":"1981","Arranques":"177","Estado":"CONCENTRADO","Ben_est":"708","ESTE":"324919","NORTE":"6836168","CLASE_SUEL":"0"}},"geometry":{"type":"Point","coordinates":[-70.790362363,-28.5896408839999]}},{"type":"Feature","properties":{"n":"agua_potable_rural","a":{"OBJECTID":"109","Cod_APR":"3030106","NR":"3","Region":"Región de Atacama","Provincia":"Huasco","Comuna":"Vallenar","Servicio":"COMITÉ","Nombre":"DOMEYKO","Año":"1998","Arranques":"319","Estado":"CONCENTRADO","Ben_est":"1276","ESTE":"312476","NORTE":"6793823","CLASE_SUEL":"0"}},"geometry":{"type":"Point","coordinates":[-70.9245482649999,-28.9699036169999]}},{"type":"Feature","properties":{"n":"agua_potable_rural","a":{"OBJECTID":"110","Cod_APR":"3030107","NR":"3","Region":"Región de Atacama","Provincia":"Huasco","Comuna":"Vallenar","Servicio":"COMITÉ","Nombre":"IMPERIAL","Año":"2000","Arranques":"160","Estado":"CONCENTRADO","Ben_est":"640","ESTE":"334222","NORTE":"6831706","CLASE_SUEL":"0"}},"geometry":{"type":"Point","coordinates":[-70.6959126209999,-28.6311215279999]}},{"type":"Feature","properties":{"n":"agua_potable_rural","a":{"OBJECTID":"111","Cod_APR":"3030108","NR":"3","Region":"Región de Atacama","Provincia":"Huasco","Comuna":"Vallenar","Servicio":"COMITÉ","Nombre":"INCAHUASI","Año":"2003","Arranques":"67","Estado":"CONCENTRADO","Ben_est":"268","ESTE":"304585","NORTE":"6765228","CLASE_SUEL":"0"}},"geometry":{"type":"Point","coordinates":[-71.010500255,-29.226655455]}},{"type":"Feature","properties":{"n":"agua_potable_rural","a":{"OBJECTID":"112","Cod_APR":"3030109","NR":"3","Region":"Región de Atacama","Provincia":"Huasco","Comuna":"Vallenar","Servicio":"COMITÉ","Nombre":"PERALES VIEJOS","Año":"2007","Arranques":"69","Estado":"CONCENTRADO","Ben_est":"276","ESTE":"322753","NORTE":"6839289","CLASE_SUEL":"0"}},"geometry":{"type":"Point","coordinates":[-70.812019886,-28.561189097]}},{"type":"Feature","properties":{"n":"agua_potable_rural","a":{"OBJECTID":"113","Cod_APR":"3030201","NR":"3","Region":"Región de Atacama","Provincia":"Huasco","Comuna":"Alto del Carmen","Servicio":"COMITÉ","Nombre":"ALTO DEL CARMEN","Año":"2002","Arranques":"212","Estado":"CONCENTRADO","Ben_est":"848","ESTE":"354698","NORTE":"6817754","CLASE_SUEL":"0"}},"geometry":{"type":"Point","coordinates":[-70.488284947,-28.7594742489999]}},{"type":"Feature","properties":{"n":"agua_potable_rural","a":{"OBJECTID":"114","Cod_APR":"3030202","NR":"3","Region":"Región de Atacama","Provincia":"Huasco","Comuna":"Alto del Carmen","Servicio":"COMITÉ","Nombre":"ANGOSTURA-LA PAMPA","Año":"1993","Arranques":"90","Estado":"CONCENTRADO","Ben_est":"360","ESTE":"380059","NORTE":"6794260","CLASE_SUEL":"0"}},"geometry":{"type":"Point","coordinates":[-70.231070501,-28.974096641]}},{"type":"Feature","properties":{"n":"agua_potable_rural","a":{"OBJECTID":"115","Cod_APR":"3030203","NR":"3","Region":"Región de Atacama","Provincia":"Huasco","Comuna":"Alto del Carmen","Servicio":"COMITÉ","Nombre":"CHANCHOQUÍN CHICO","Año":"1991","Arranques":"64","Estado":"CONCENTRADO","Ben_est":"256","ESTE":"374220","NORTE":"6808255","CLASE_SUEL":"0"}},"geometry":{"type":"Point","coordinates":[-70.289426802,-28.8472468329999]}},{"type":"Feature","properties":{"n":"agua_potable_rural","a":{"OBJECTID":"116","Cod_APR":"3030205","NR":"3","Region":"Región de Atacama","Provincia":"Huasco","Comuna":"Alto del Carmen","Servicio":"COMITÉ","Nombre":"CHIGUINTO","Año":"1980","Arranques":"59","Estado":"CONCENTRADO","Ben_est":"236","ESTE":"368544","NORTE":"6810330","CLASE_SUEL":"0"}},"geometry":{"type":"Point","coordinates":[-70.347359764,-28.8279539169999]}},{"type":"Feature","properties":{"n":"agua_potable_rural","a":{"OBJECTID":"117","Cod_APR":"3030103","NR":"3","Region":"Región de Atacama","Provincia":"Huasco","Comuna":"Vallenar","Servicio":"COMITÉ","Nombre":"CAMARONES","Año":"2003","Arranques":"65","Estado":"CONCENTRADO","Ben_est":"260","ESTE":"337600","NORTE":"6828156","CLASE_SUEL":"0"}},"geometry":{"type":"Point","coordinates":[-70.661872656,-28.6635798619999]}},{"type":"Feature","properties":{"n":"agua_potable_rural","a":{"OBJECTID":"118","Cod_APR":"3030207","NR":"3","Region":"Región de Atacama","Provincia":"Huasco","Comuna":"Alto del Carmen","Servicio":"COMITÉ","Nombre":"CONAY-LOS TAMBOS","Año":"1995","Arranques":"133","Estado":"CONCENTRADO","Ben_est":"532","ESTE":"387683","NORTE":"6794222","CLASE_SUEL":"0"}},"geometry":{"type":"Point","coordinates":[-70.15283534,-28.9751329929999]}},{"type":"Feature","properties":{"n":"agua_potable_rural","a":{"OBJECTID":"119","Cod_APR":"3030208","NR":"3","Region":"Región de Atacama","Provincia":"Huasco","Comuna":"Alto del Carmen","Servicio":"COMITÉ","Nombre":"CRUCESITA-LA MAJADA","Año":"1989","Arranques":"94","Estado":"CONCENTRADO","Ben_est":"376","ESTE":"358364","NORTE":"6802099","CLASE_SUEL":"0"}},"geometry":{"type":"Point","coordinates":[-70.4527056709999,-28.90114211]}},{"type":"Feature","properties":{"n":"agua_potable_rural","a":{"OBJECTID":"120","Cod_APR":"3030209","NR":"3","Region":"Región de Atacama","Provincia":"Huasco","Comuna":"Alto del Carmen","Servicio":"COMITÉ","Nombre":"EL CORRAL","Año":"2004","Arranques":"43","Estado":"CONCENTRADO","Ben_est":"172","ESTE":"364557","NORTE":"6777379","CLASE_SUEL":"0"}},"geometry":{"type":"Point","coordinates":[-70.39219013,-29.1248675749999]}},{"type":"Feature","properties":{"n":"agua_potable_rural","a":{"OBJECTID":"121","Cod_APR":"3030210","NR":"3","Region":"Región de Atacama","Provincia":"Huasco","Comuna":"Alto del Carmen","Servicio":"COMITÉ","Nombre":"EL RETAMO","Año":"1995","Arranques":"112","Estado":"CONCENTRADO","Ben_est":"448","ESTE":"358962","NORTE":"6810156","CLASE_SUEL":"0"}},"geometry":{"type":"Point","coordinates":[-70.4455673859999,-28.828507665]}},{"type":"Feature","properties":{"n":"agua_potable_rural","a":{"OBJECTID":"122","Cod_APR":"3030211","NR":"3","Region":"Región de Atacama","Provincia":"Huasco","Comuna":"Alto del Carmen","Servicio":"COMITÉ","Nombre":"EL TRÁNSITO - CHANCHOQUÍN GRANDE","Año":"1991-1981","Arranques":"284","Estado":"CONCENTRADO","Ben_est":"1136","ESTE":"375478","NORTE":"6805013","CLASE_SUEL":"0"}},"geometry":{"type":"Point","coordinates":[-70.2768906489999,-28.876624996]}},{"type":"Feature","properties":{"n":"agua_potable_rural","a":{"OBJECTID":"123","Cod_APR":"3030212","NR":"3","Region":"Región de Atacama","Provincia":"Huasco","Comuna":"Alto del Carmen","Servicio":"COMITÉ","Nombre":"JUNTA VALERIANO","Año":"1991","Arranques":"44","Estado":"CONCENTRADO","Ben_est":"176","ESTE":"398355","NORTE":"6804695","CLASE_SUEL":"0"}},"geometry":{"type":"Point","coordinates":[-70.0423664369999,-28.8815129929999]}},{"type":"Feature","properties":{"n":"agua_potable_rural","a":{"OBJECTID":"124","Cod_APR":"3030213","NR":"3","Region":"Región de Atacama","Provincia":"Huasco","Comuna":"Alto del Carmen","Servicio":"COMITÉ","Nombre":"LA ARENA","Año":"1985","Arranques":"97","Estado":"CONCENTRADO","Ben_est":"388","ESTE":"375445","NORTE":"6799911","CLASE_SUEL":"0"}},"geometry":{"type":"Point","coordinates":[-70.2777928259999,-28.922661478]}},{"type":"Feature","properties":{"n":"agua_potable_rural","a":{"OBJECTID":"125","Cod_APR":"3030214","NR":"3","Region":"Región de Atacama","Provincia":"Huasco","Comuna":"Alto del Carmen","Servicio":"COMITÉ","Nombre":"LA HIGUERITA","Año":"1985","Arranques":"67","Estado":"CONCENTRADO","Ben_est":"268","ESTE":"359199","NORTE":"6800359","CLASE_SUEL":"0"}},"geometry":{"type":"Point","coordinates":[-70.444361127,-28.9169345719999]}},{"type":"Feature","properties":{"n":"agua_potable_rural","a":{"OBJECTID":"126","Cod_APR":"3030215","NR":"3","Region":"Región de Atacama","Provincia":"Huasco","Comuna":"Alto del Carmen","Servicio":"COMITÉ","Nombre":"LA MARQUESA","Año":"1989","Arranques":"105","Estado":"CONCENTRADO","Ben_est":"420","ESTE":"366327","NORTE":"6811051","CLASE_SUEL":"0"}},"geometry":{"type":"Point","coordinates":[-70.3699924329999,-28.821219097]}},{"type":"Feature","properties":{"n":"agua_potable_rural","a":{"OBJECTID":"127","Cod_APR":"3030216","NR":"3","Region":"Región de Atacama","Provincia":"Huasco","Comuna":"Alto del Carmen","Servicio":"COMITÉ","Nombre":"LAS BREAS","Año":"2006","Arranques":"36","Estado":"CONCENTRADO","Ben_est":"144","ESTE":"357753","NORTE":"6780051","CLASE_SUEL":"0"}},"geometry":{"type":"Point","coordinates":[-70.461767745,-29.1000140429999]}},{"type":"Feature","properties":{"n":"agua_potable_rural","a":{"OBJECTID":"128","Cod_APR":"3030206","NR":"3","Region":"Región de Atacama","Provincia":"Huasco","Comuna":"Alto del Carmen","Servicio":"COMITÉ","Nombre":"CHOLLAY","Año":"2008","Arranques":"71","Estado":"CONCENTRADO","Ben_est":"284","ESTE":"388157","NORTE":"6790746","CLASE_SUEL":"0"}},"geometry":{"type":"Point","coordinates":[-70.148317511,-29.00654259]}},{"type":"Feature","properties":{"n":"agua_potable_rural","a":{"OBJECTID":"129","Cod_APR":"3030302","NR":"3","Region":"Región de Atacama","Provincia":"Huasco","Comuna":"Freirina","Servicio":"COMITÉ","Nombre":"HACIENDA ATACAMA-NICOLASA","Año":"2000","Arranques":"98","Estado":"CONCENTRADO","Ben_est":"392","ESTE":"304023","NORTE":"6843328","CLASE_SUEL":"0"}},"geometry":{"type":"Point","coordinates":[-71.002718121,-28.5220623719999]}},{"type":"Feature","properties":{"n":"agua_potable_rural","a":{"OBJECTID":"130","Cod_APR":"3030219","NR":"3","Region":"Región de Atacama","Provincia":"Huasco","Comuna":"Alto del Carmen","Servicio":"COMITÉ","Nombre":"PIEDRAS JUNTAS","Año":"2010","Arranques":"56","Estado":"SEMICONCENTRADO","Fondos":"Sectorial","Ben_est":"224","ESTE":"356432","NORTE":"6790507","CLASE_SUEL":"0"}},"geometry":{"type":"Point","coordinates":[-70.473996706,-29.005522024]}},{"type":"Feature","properties":{"n":"agua_potable_rural","a":{"OBJECTID":"131","Cod_APR":"3030301","NR":"3","Region":"Región de Atacama","Provincia":"Huasco","Comuna":"Freirina","Servicio":"COMITÉ","Nombre":"CARRIZALILLO-CALETA CHAÑARAL DE ACEITUNO","Año":"2001","Arranques":"223","Estado":"CONCENTRADO","Ben_est":"892","ESTE":"265605","NORTE":"6778313","CLASE_SUEL":"0"}},"geometry":{"type":"Point","coordinates":[-71.4085141209999,-29.102032051]}},{"type":"Feature","properties":{"n":"agua_potable_rural","a":{"OBJECTID":"132","Cod_APR":"3030217","NR":"3","Region":"Región de Atacama","Provincia":"Huasco","Comuna":"Alto del Carmen","Servicio":"COMITÉ","Nombre":"LOS PERALES","Año":"1994","Arranques":"137","Estado":"CONCENTRADO","Ben_est":"548","ESTE":"372269","NORTE":"6807837","CLASE_SUEL":"0"}},"geometry":{"type":"Point","coordinates":[-70.309470349,-28.8508261069999]}},{"type":"Feature","properties":{"n":"agua_potable_rural","a":{"OBJECTID":"133","Cod_APR":"3030303","NR":"3","Region":"Región de Atacama","Provincia":"Huasco","Comuna":"Freirina","Servicio":"COMITÉ","Nombre":"LAS TABLAS","Año":"2000","Arranques":"44","Estado":"CONCENTRADO","Ben_est":"176","ESTE":"292311","NORTE":"6844872","CLASE_SUEL":"0"}},"geometry":{"type":"Point","coordinates":[-71.1220603249999,-28.5063181049999]}},{"type":"Feature","properties":{"n":"agua_potable_rural","a":{"OBJECTID":"134","Cod_APR":"3030401","NR":"3","Region":"Región de Atacama","Provincia":"Huasco","Comuna":"Huasco","Servicio":"COMITÉ","Nombre":"CARRIZAL BAJO","Año":"2002","Arranques":"212","Estado":"CONCENTRADO","Ben_est":"848","ESTE":"289318","NORTE":"6890337","CLASE_SUEL":"0"}},"geometry":{"type":"Point","coordinates":[-71.1443818669999,-28.095718857]}},{"type":"Feature","properties":{"n":"agua_potable_rural","a":{"OBJECTID":"135","Cod_APR":"3030402","NR":"3","Region":"Región de Atacama","Provincia":"Huasco","Comuna":"Huasco","Servicio":"COMITÉ","Nombre":"EL PINO","Año":"2008","Arranques":"53","Estado":"CONCENTRADO","Ben_est":"212","ESTE":"288902","NORTE":"6847133","CLASE_SUEL":"0"}},"geometry":{"type":"Point","coordinates":[-71.156456868,-28.485375125]}},{"type":"Feature","properties":{"n":"agua_potable_rural","a":{"OBJECTID":"136","Cod_APR":"0","NR":"3","Region":"Región de Atacama","Provincia":"Huasco","Comuna":"Alto del Carmen","Servicio":"COMITÉ","Nombre":"LA VEGA","Año":"2014","Arranques":"53","Estado":"SEMICONCENTRADO","Fondos":"Sectorial","Ben_est":"212","ESTE":"356875","NORTE":"6814504","CLASE_SUEL":"0"}},"geometry":{"type":"Point","coordinates":[-70.466402735,-28.789043705]}},{"type":"Feature","properties":{"n":"agua_potable_rural","a":{"OBJECTID":"137","Cod_APR":"3030218","NR":"3","Region":"Región de Atacama","Provincia":"Huasco","Comuna":"Alto del Carmen","Servicio":"COMITÉ","Nombre":"SAN FÉLIX","Año":"1988","Arranques":"212","Estado":"CONCENTRADO","Ben_est":"848","ESTE":"357698","NORTE":"6798605","CLASE_SUEL":"0"}},"geometry":{"type":"Point","coordinates":[-70.459976282,-28.932595132]}},{"type":"Feature","properties":{"n":"agua_potable_rural","a":{"OBJECTID":"139","Cod_APR":"4030103","NR":"4","Region":"Región de Coquimbo","Provincia":"Limarí","Comuna":"Punitaqui","Servicio":"COMITÉ","Nombre":"CAMARICO (CAMARICO CHICO-CAMARICO VIEJO)","Año":"2000","Arranques":"104","Estado":"CONCENTRADO","Ben_est":"416","ESTE":"272616","NORTE":"6593733","CLASE_SUEL":"0"}},"geometry":{"type":"Point","coordinates":[-71.37576273,-30.767671239]}},{"type":"Feature","properties":{"n":"agua_potable_rural","a":{"OBJECTID":"140","Cod_APR":"4010101","NR":"4","Region":"Región de Coquimbo","Provincia":"Elqui","Comuna":"La Serena","Servicio":"COMITÉ","Nombre":"ALMIRANTE LATORRE","Año":"2003","Arranques":"54","Estado":"CONCENTRADO","Ben_est":"216","ESTE":"310888","NORTE":"6719918","CLASE_SUEL":"0"}},"geometry":{"type":"Point","coordinates":[-70.953493684,-29.6363168419999]}},{"type":"Feature","properties":{"n":"agua_potable_rural","a":{"OBJECTID":"141","Cod_APR":"4010102","NR":"4","Region":"Región de Coquimbo","Provincia":"Elqui","Comuna":"La Serena","Servicio":"COMITÉ","Nombre":"BELLAVISTA-CERES (BELLAVISTA-CERES)","Año":"1995","Arranques":"412","Estado":"CONCENTRADO","Ben_est":"1648","ESTE":"289505","NORTE":"6685720","CLASE_SUEL":"0"}},"geometry":{"type":"Point","coordinates":[-71.180929491,-29.941290145]}},{"type":"Feature","properties":{"n":"agua_potable_rural","a":{"OBJECTID":"142","Cod_APR":"4010103","NR":"4","Region":"Región de Coquimbo","Provincia":"Elqui","Comuna":"La Serena","Servicio":"COMITÉ","Nombre":"COQUIMBITO-ALTOVALSOL (COQUIMBITO-HACIENDA LORETO-ALTOVALSOL)","Año":"1979","Arranques":"700","Estado":"CONCENTRADO","Ben_est":"2800","ESTE":"295776","NORTE":"6686192","CLASE_SUEL":"0"}},"geometry":{"type":"Point","coordinates":[-71.115903385,-29.938092363]}},{"type":"Feature","properties":{"n":"agua_potable_rural","a":{"OBJECTID":"143","Cod_APR":"4010104","NR":"4","Region":"Región de Coquimbo","Provincia":"Elqui","Comuna":"La Serena","Servicio":"COMITÉ","Nombre":"EL ROMERO (EL ROMERO-SANTA ELISA)","Año":"1993","Arranques":"213","Estado":"CONCENTRADO","Ben_est":"852","ESTE":"295176","NORTE":"6692679","CLASE_SUEL":"0"}},"geometry":{"type":"Point","coordinates":[-71.120875891,-29.8794892609999]}},{"type":"Feature","properties":{"n":"agua_potable_rural","a":{"OBJECTID":"144","Cod_APR":"4010105","NR":"4","Region":"Región de Coquimbo","Provincia":"Elqui","Comuna":"La Serena","Servicio":"COMITÉ","Nombre":"GABRIELA MISTRAL (GABRIELA MISTRAL-EL ROSARIO)","Año":"1989","Arranques":"300","Estado":"CONCENTRADO","Ben_est":"1200","ESTE":"298175","NORTE":"6681558","CLASE_SUEL":"0"}},"geometry":{"type":"Point","coordinates":[-71.09193729,-29.980281292]}},{"type":"Feature","properties":{"n":"agua_potable_rural","a":{"OBJECTID":"145","Cod_APR":"4010106","NR":"4","Region":"Región de Coquimbo","Provincia":"Elqui","Comuna":"La Serena","Servicio":"COMITÉ","Nombre":"ISLÓN","Año":"1975","Arranques":"242","Estado":"CONCENTRADO","Ben_est":"968","ESTE":"288835","NORTE":"6690799","CLASE_SUEL":"0"}},"geometry":{"type":"Point","coordinates":[-71.186865449,-29.895372073]}},{"type":"Feature","properties":{"n":"agua_potable_rural","a":{"OBJECTID":"146","Cod_APR":"4010107","NR":"4","Region":"Región de Coquimbo","Provincia":"Elqui","Comuna":"La Serena","Servicio":"COMITÉ","Nombre":"LAMBERT","Año":"1978","Arranques":"257","Estado":"CONCENTRADO","Ben_est":"1028","ESTE":"295140","NORTE":"6697322","CLASE_SUEL":"0"}},"geometry":{"type":"Point","coordinates":[-71.120362757,-29.837609914]}},{"type":"Feature","properties":{"n":"agua_potable_rural","a":{"OBJECTID":"147","Cod_APR":"4010108","NR":"4","Region":"Región de Coquimbo","Provincia":"Elqui","Comuna":"La Serena","Servicio":"COMITÉ","Nombre":"LAS ROJAS (LAS ROJAS-PUNTA DE PIEDRA)","Año":"1970","Arranques":"291","Estado":"CONCENTRADO","Ben_est":"1164","ESTE":"301737","NORTE":"6682270","CLASE_SUEL":"0"}},"geometry":{"type":"Point","coordinates":[-71.0549045719999,-29.9744410929999]}},{"type":"Feature","properties":{"n":"agua_potable_rural","a":{"OBJECTID":"148","Cod_APR":"4010109","NR":"4","Region":"Región de Coquimbo","Provincia":"Elqui","Comuna":"La Serena","Servicio":"COMITÉ","Nombre":"PELÍCANA","Año":"1983","Arranques":"109","Estado":"CONCENTRADO","Ben_est":"436","ESTE":"306354","NORTE":"6680906","CLASE_SUEL":"0"}},"geometry":{"type":"Point","coordinates":[-71.007323806,-29.987480891]}},{"type":"Feature","properties":{"n":"agua_potable_rural","a":{"OBJECTID":"149","Cod_APR":"4010110","NR":"4","Region":"Región de Coquimbo","Provincia":"Elqui","Comuna":"La Serena","Servicio":"COMITÉ","Nombre":"QUEBRADA DE TALCA (QUEBRADA DE TALCA-EL HINOJAL)","Año":"1981","Arranques":"242","Estado":"CONCENTRADO","Ben_est":"968","ESTE":"303300","NORTE":"6678625","CLASE_SUEL":"0"}},"geometry":{"type":"Point","coordinates":[-71.0393855029999,-30.0075666389999]}},{"type":"Feature","properties":{"n":"agua_potable_rural","a":{"OBJECTID":"150","Cod_APR":"4010201","NR":"4","Region":"Región de Coquimbo","Provincia":"Elqui","Comuna":"Coquimbo","Servicio":"COMITÉ","Nombre":"EL SAUCE (EL SAUCE DE MIRAMAR-RINCONADA )","Año":"1997","Arranques":"303","Estado":"CONCENTRADO","Ben_est":"1212","ESTE":"275365","NORTE":"6678394","CLASE_SUEL":"0"}},"geometry":{"type":"Point","coordinates":[-71.3288766749999,-30.004844936]}},{"type":"Feature","properties":{"n":"agua_potable_rural","a":{"OBJECTID":"151","Cod_APR":"4010501","NR":"4","Region":"Región de Coquimbo","Provincia":"Elqui","Comuna":"Paihuano","Servicio":"COMITÉ","Nombre":"HORCÓN-ALCOHUAZ (HORCÓN-ALCOHUAZ-EL MAQUI-LOS PINOS)","Año":"1985","Arranques":"369","Estado":"CONCENTRADO","Ben_est":"1476","ESTE":"366188","NORTE":"6654575","CLASE_SUEL":"0"}},"geometry":{"type":"Point","coordinates":[-70.390597739,-30.2330285749999]}},{"type":"Feature","properties":{"n":"agua_potable_rural","a":{"OBJECTID":"152","Cod_APR":"4010203","NR":"4","Region":"Región de Coquimbo","Provincia":"Elqui","Comuna":"Coquimbo","Servicio":"COMITÉ","Nombre":"LAS BARRANCAS (LAS BARRANCAS-ALCAPARRAS-SECTOR 1-2-3)","Año":"2000","Arranques":"277","Estado":"CONCENTRADO","Ben_est":"1108","ESTE":"282711","NORTE":"6652328","CLASE_SUEL":"0"}},"geometry":{"type":"Point","coordinates":[-71.25811248,-30.241218276]}},{"type":"Feature","properties":{"n":"agua_potable_rural","a":{"OBJECTID":"153","Cod_APR":"4010204","NR":"4","Region":"Región de Coquimbo","Provincia":"Elqui","Comuna":"Coquimbo","Servicio":"COMITÉ","Nombre":"LAS CARDAS","Año":"2008","Arranques":"51","Estado":"CONCENTRADO","Ben_est":"204","ESTE":"284565","NORTE":"6648159","CLASE_SUEL":"0"}},"geometry":{"type":"Point","coordinates":[-71.2397110599999,-30.2791421479999]}},{"type":"Feature","properties":{"n":"agua_potable_rural","a":{"OBJECTID":"154","Cod_APR":"4010205","NR":"4","Region":"Región de Coquimbo","Provincia":"Elqui","Comuna":"Coquimbo","Servicio":"COMITÉ","Nombre":"NUEVA VIDA","Año":"1995","Arranques":"115","Estado":"CONCENTRADO","Ben_est":"460","ESTE":"284518","NORTE":"6669625","CLASE_SUEL":"0"}},"geometry":{"type":"Point","coordinates":[-71.235821707,-30.0855651909999]}},{"type":"Feature","properties":{"n":"agua_potable_rural","a":{"OBJECTID":"155","Cod_APR":"4010206","NR":"4","Region":"Región de Coquimbo","Provincia":"Elqui","Comuna":"Coquimbo","Servicio":"COMITÉ","Nombre":"PAN DE AZÚCAR","Año":"1985","Arranques":"1201","Estado":"CONCENTRADO","Ben_est":"4804","ESTE":"283028","NORTE":"6674425","CLASE_SUEL":"0"}},"geometry":{"type":"Point","coordinates":[-71.250292073,-30.042017147]}},{"type":"Feature","properties":{"n":"agua_potable_rural","a":{"OBJECTID":"156","Cod_APR":"4010207","NR":"4","Region":"Región de Coquimbo","Provincia":"Elqui","Comuna":"Coquimbo","Servicio":"COMITÉ","Nombre":"PUERTO ALDEA","Año":"2006","Arranques":"93","Estado":"CONCENTRADO","Ben_est":"372","ESTE":"249128","NORTE":"6644703","CLASE_SUEL":"0"}},"geometry":{"type":"Point","coordinates":[-71.608649494,-30.3034790639999]}},{"type":"Feature","properties":{"n":"agua_potable_rural","a":{"OBJECTID":"157","Cod_APR":"4010208","NR":"4","Region":"Región de Coquimbo","Provincia":"Elqui","Comuna":"Coquimbo","Servicio":"COMITÉ","Nombre":"TAMBILLOS","Año":"2000","Arranques":"120","Estado":"CONCENTRADO","Ben_est":"480","ESTE":"286163","NORTE":"6657512","CLASE_SUEL":"0"}},"geometry":{"type":"Point","coordinates":[-71.221210347,-30.195084833]}},{"type":"Feature","properties":{"n":"agua_potable_rural","a":{"OBJECTID":"158","Cod_APR":"4010209","NR":"4","Region":"Región de Coquimbo","Provincia":"Elqui","Comuna":"Coquimbo","Servicio":"COMITÉ","Nombre":"TOTORALILLO","Año":"2008","Arranques":"126","Estado":"CONCENTRADO","Ben_est":"504","ESTE":"272689","NORTE":"6671738","CLASE_SUEL":"0"}},"geometry":{"type":"Point","coordinates":[-71.358021519,-30.0643677489999]}},{"type":"Feature","properties":{"n":"agua_potable_rural","a":{"OBJECTID":"159","Cod_APR":"4010301","NR":"4","Region":"Región de Coquimbo","Provincia":"Elqui","Comuna":"Andacollo","Servicio":"COMITÉ","Nombre":"EL MANZANO","Año":"2009","Arranques":"63","Estado":"CONCENTRADO","Ben_est":"252","ESTE":"291079","NORTE":"6660650","CLASE_SUEL":"0"}},"geometry":{"type":"Point","coordinates":[-71.169556485,-30.1676416359999]}},{"type":"Feature","properties":{"n":"agua_potable_rural","a":{"OBJECTID":"160","Cod_APR":"4010401","NR":"4","Region":"Región de Coquimbo","Provincia":"Elqui","Comuna":"La Higuera","Servicio":"COMITÉ","Nombre":"CALETA HORNOS","Año":"1995","Arranques":"363","Estado":"CONCENTRADO","Ben_est":"1452","ESTE":"279422","NORTE":"6720223","CLASE_SUEL":"0"}},"geometry":{"type":"Point","coordinates":[-71.278271385,-29.628381969]}},{"type":"Feature","properties":{"n":"agua_potable_rural","a":{"OBJECTID":"161","Cod_APR":"4010402","NR":"4","Region":"Región de Coquimbo","Provincia":"Elqui","Comuna":"La Higuera","Servicio":"COMITÉ","Nombre":"CHUNGUNGO","Año":"1992","Arranques":"270","Estado":"CONCENTRADO","Ben_est":"1080","ESTE":"277901","NORTE":"6740000","CLASE_SUEL":"0"}},"geometry":{"type":"Point","coordinates":[-71.289946329,-29.449762424]}},{"type":"Feature","properties":{"n":"agua_potable_rural","a":{"OBJECTID":"162","Cod_APR":"4010403","NR":"4","Region":"Región de Coquimbo","Provincia":"Elqui","Comuna":"La Higuera","Servicio":"COMITÉ","Nombre":"EL TRAPICHE","Año":"1998","Arranques":"117","Estado":"CONCENTRADO","Ben_est":"468","ESTE":"293914","NORTE":"6749212","CLASE_SUEL":"0"}},"geometry":{"type":"Point","coordinates":[-71.123214327,-29.369414701]}},{"type":"Feature","properties":{"n":"agua_potable_rural","a":{"OBJECTID":"163","Cod_APR":"4010404","NR":"4","Region":"Región de Coquimbo","Provincia":"Elqui","Comuna":"La Higuera","Servicio":"COMITÉ","Nombre":"LA HIGUERA","Año":"1985","Arranques":"485","Estado":"CONCENTRADO","Ben_est":"1940","ESTE":"286888","NORTE":"6733024","CLASE_SUEL":"0"}},"geometry":{"type":"Point","coordinates":[-71.198702172,-29.514237796]}},{"type":"Feature","properties":{"n":"agua_potable_rural","a":{"OBJECTID":"164","Cod_APR":"4010405","NR":"4","Region":"Región de Coquimbo","Provincia":"Elqui","Comuna":"La Higuera","Servicio":"COMITÉ","Nombre":"LOS CHOROS","Año":"1980","Arranques":"181","Estado":"CONCENTRADO","Ben_est":"724","ESTE":"276241","NORTE":"6757753","CLASE_SUEL":"0"}},"geometry":{"type":"Point","coordinates":[-71.303441688,-29.289367999]}},{"type":"Feature","properties":{"n":"agua_potable_rural","a":{"OBJECTID":"165","Cod_APR":"4010406","NR":"4","Region":"Región de Coquimbo","Provincia":"Elqui","Comuna":"La Higuera","Servicio":"COMITÉ","Nombre":"PUNTA COLORADA","Año":"2002","Arranques":"151","Estado":"CONCENTRADO","Ben_est":"604","ESTE":"304480","NORTE":"6751127","CLASE_SUEL":"0"}},"geometry":{"type":"Point","coordinates":[-71.0140747149999,-29.353830054]}},{"type":"Feature","properties":{"n":"agua_potable_rural","a":{"OBJECTID":"166","Cod_APR":"4010407","NR":"4","Region":"Región de Coquimbo","Provincia":"Elqui","Comuna":"La Higuera","Servicio":"COMITÉ","Nombre":"PUNTA DE CHOROS","Año":"1999","Arranques":"180","Estado":"CONCENTRADO","Ben_est":"720","ESTE":"260844","NORTE":"6762620","CLASE_SUEL":"0"}},"geometry":{"type":"Point","coordinates":[-71.460773913,-29.242654794]}},{"type":"Feature","properties":{"n":"agua_potable_rural","a":{"OBJECTID":"167","Cod_APR":"4010202","NR":"4","Region":"Región de Coquimbo","Provincia":"Elqui","Comuna":"La Serena","Servicio":"COMITÉ","Nombre":"HUACHALALUME (GUACHALALUME)","Año":"1996","Arranques":"173","Estado":"CONCENTRADO","Ben_est":"692","ESTE":"285481","NORTE":"6682237","CLASE_SUEL":"0"}},"geometry":{"type":"Point","coordinates":[-71.223295165,-29.9720029809999]}},{"type":"Feature","properties":{"n":"agua_potable_rural","a":{"OBJECTID":"169","Cod_APR":"4010502","NR":"4","Region":"Región de Coquimbo","Provincia":"Elqui","Comuna":"Paihuano","Servicio":"COMITÉ","Nombre":"LA JARILLA (LA JARILLA-PISCO ELQUI-MONTEGRANDE-QUEBRADA DE PINTO-PUEBLO HUNDIDO-LOS NICHOS-LOS PALTOS)","Año":"1983","Arranques":"731","Estado":"CONCENTRADO","Ben_est":"2924","ESTE":"355953","NORTE":"6668982","CLASE_SUEL":"0"}},"geometry":{"type":"Point","coordinates":[-70.49496935,-30.101887034]}},{"type":"Feature","properties":{"n":"agua_potable_rural","a":{"OBJECTID":"170","Cod_APR":"4010601","NR":"4","Region":"Región de Coquimbo","Provincia":"Elqui","Comuna":"Vicuña","Servicio":"COMITÉ","Nombre":"ANDACOLLITO (ANDACOLLITO-LA CAMPANA-PULLAYES)","Año":"1983","Arranques":"335","Estado":"CONCENTRADO","Ben_est":"1340","ESTE":"344652","NORTE":"6678023","CLASE_SUEL":"0"}},"geometry":{"type":"Point","coordinates":[-70.610896263,-30.0189419169999]}},{"type":"Feature","properties":{"n":"agua_potable_rural","a":{"OBJECTID":"171","Cod_APR":"4010602","NR":"4","Region":"Región de Coquimbo","Provincia":"Elqui","Comuna":"Vicuña","Servicio":"COMITÉ","Nombre":"CHAPILCA","Año":"1985","Arranques":"109","Estado":"CONCENTRADO","Ben_est":"436","ESTE":"353054","NORTE":"6691435","CLASE_SUEL":"0"}},"geometry":{"type":"Point","coordinates":[-70.521952579,-29.8989835909999]}},{"type":"Feature","properties":{"n":"agua_potable_rural","a":{"OBJECTID":"172","Cod_APR":"4010603","NR":"4","Region":"Región de Coquimbo","Provincia":"Elqui","Comuna":"Vicuña","Servicio":"COMITÉ","Nombre":"DIAGUITAS","Año":"1971","Arranques":"365","Estado":"CONCENTRADO","Ben_est":"1460","ESTE":"342229","NORTE":"6677810","CLASE_SUEL":"0"}},"geometry":{"type":"Point","coordinates":[-70.636044851,-30.0205534419999]}},{"type":"Feature","properties":{"n":"agua_potable_rural","a":{"OBJECTID":"173","Cod_APR":"4010604","NR":"4","Region":"Región de Coquimbo","Provincia":"Elqui","Comuna":"Vicuña","Servicio":"COMITÉ","Nombre":"EL ARENAL (MIRAFLORES)","Año":"1985","Arranques":"84","Estado":"CONCENTRADO","Ben_est":"336","ESTE":"338543","NORTE":"6677330","CLASE_SUEL":"0"}},"geometry":{"type":"Point","coordinates":[-70.674327009,-30.0244026839999]}},{"type":"Feature","properties":{"n":"agua_potable_rural","a":{"OBJECTID":"174","Cod_APR":"4010605","NR":"4","Region":"Región de Coquimbo","Provincia":"Elqui","Comuna":"Vicuña","Servicio":"COMITÉ","Nombre":"EL MOLLE (EL MOLLE-POLLA ALTA)","Año":"1970","Arranques":"229","Estado":"CONCENTRADO","Ben_est":"916","ESTE":"311914","NORTE":"6682612","CLASE_SUEL":"0"}},"geometry":{"type":"Point","coordinates":[-70.949416808,-29.972959666]}},{"type":"Feature","properties":{"n":"agua_potable_rural","a":{"OBJECTID":"175","Cod_APR":"4010606","NR":"4","Region":"Región de Coquimbo","Provincia":"Elqui","Comuna":"Vicuña","Servicio":"COMITÉ","Nombre":"EL TAMBO","Año":"1973","Arranques":"294","Estado":"CONCENTRADO","Ben_est":"1176","ESTE":"328122","NORTE":"6676463","CLASE_SUEL":"0"}},"geometry":{"type":"Point","coordinates":[-70.782491496,-30.0308039409999]}},{"type":"Feature","properties":{"n":"agua_potable_rural","a":{"OBJECTID":"176","Cod_APR":"4010607","NR":"4","Region":"Región de Coquimbo","Provincia":"Elqui","Comuna":"Vicuña","Servicio":"COMITÉ","Nombre":"GUALLIGUAICA","Año":"2000","Arranques":"132","Estado":"CONCENTRADO","Ben_est":"528","ESTE":"325263","NORTE":"6677931","CLASE_SUEL":"0"}},"geometry":{"type":"Point","coordinates":[-70.811888096,-30.0171575209999]}},{"type":"Feature","properties":{"n":"agua_potable_rural","a":{"OBJECTID":"177","Cod_APR":"4010608","NR":"4","Region":"Región de Coquimbo","Provincia":"Elqui","Comuna":"Vicuña","Servicio":"COMITÉ","Nombre":"HUANTA (GUANTA)","Año":"1985","Arranques":"84","Estado":"CONCENTRADO","Ben_est":"336","ESTE":"366182","NORTE":"6697393","CLASE_SUEL":"0"}},"geometry":{"type":"Point","coordinates":[-70.385274679,-29.846728277]}},{"type":"Feature","properties":{"n":"agua_potable_rural","a":{"OBJECTID":"178","Cod_APR":"4010609","NR":"4","Region":"Región de Coquimbo","Provincia":"Elqui","Comuna":"Vicuña","Servicio":"COMITÉ","Nombre":"LA CALERA (LA CALERA-VILLA EL ARRAYÁN)","Año":"1991","Arranques":"204","Estado":"CONCENTRADO","Ben_est":"816","ESTE":"308130","NORTE":"6680034","CLASE_SUEL":"0"}},"geometry":{"type":"Point","coordinates":[-70.989080047,-29.9956249169999]}},{"type":"Feature","properties":{"n":"agua_potable_rural","a":{"OBJECTID":"179","Cod_APR":"4010610","NR":"4","Region":"Región de Coquimbo","Provincia":"Elqui","Comuna":"Vicuña","Servicio":"COMITÉ","Nombre":"LA COMPAÑÍA","Año":"1997","Arranques":"113","Estado":"CONCENTRADO","Ben_est":"452","ESTE":"334474","NORTE":"6674608","CLASE_SUEL":"0"}},"geometry":{"type":"Point","coordinates":[-70.716930713,-30.048412856]}},{"type":"Feature","properties":{"n":"agua_potable_rural","a":{"OBJECTID":"180","Cod_APR":"4010611","NR":"4","Region":"Región de Coquimbo","Provincia":"Elqui","Comuna":"Vicuña","Servicio":"COMITÉ","Nombre":"LA VIÑITA ALTA","Año":"2005","Arranques":"42","Estado":"CONCENTRADO","Ben_est":"168","ESTE":"326441","NORTE":"6700594","CLASE_SUEL":"0"}},"geometry":{"type":"Point","coordinates":[-70.796004792,-29.812898778]}},{"type":"Feature","properties":{"n":"agua_potable_rural","a":{"OBJECTID":"181","Cod_APR":"4010612","NR":"4","Region":"Región de Coquimbo","Provincia":"Elqui","Comuna":"Vicuña","Servicio":"COMITÉ","Nombre":"MARQUESA-NUEVA TALCUNA","Año":"1988","Arranques":"463","Estado":"CONCENTRADO","Ben_est":"1852","ESTE":"309978","NORTE":"6683672","CLASE_SUEL":"0"}},"geometry":{"type":"Point","coordinates":[-70.9692840179999,-29.963100751]}},{"type":"Feature","properties":{"n":"agua_potable_rural","a":{"OBJECTID":"182","Cod_APR":"4010613","NR":"4","Region":"Región de Coquimbo","Provincia":"Elqui","Comuna":"Vicuña","Servicio":"COMITÉ","Nombre":"PUNTA AZUL (VILLA PUCLARO-SAN CARLOS)","Año":"2001","Arranques":"115","Estado":"CONCENTRADO","Ben_est":"460","ESTE":"325593","NORTE":"6676494","CLASE_SUEL":"0"}},"geometry":{"type":"Point","coordinates":[-70.808703016,-30.030166417]}},{"type":"Feature","properties":{"n":"agua_potable_rural","a":{"OBJECTID":"183","Cod_APR":"4010614","NR":"4","Region":"Región de Coquimbo","Provincia":"Elqui","Comuna":"Vicuña","Servicio":"COMITÉ","Nombre":"RIVADAVIA","Año":"1983","Arranques":"373","Estado":"CONCENTRADO","Ben_est":"1492","ESTE":"349163","NORTE":"6683221","CLASE_SUEL":"0"}},"geometry":{"type":"Point","coordinates":[-70.563398537,-29.972613737]}},{"type":"Feature","properties":{"n":"agua_potable_rural","a":{"OBJECTID":"184","Cod_APR":"4030504","NR":"4","Region":"Región de Coquimbo","Provincia":"Limarí","Comuna":"Río Hurtado","Servicio":"COMITÉ","Nombre":"LAS BREAS","Año":"1996","Arranques":"97","Estado":"CONCENTRADO","Ben_est":"388","ESTE":"346782","NORTE":"6637107","CLASE_SUEL":"0"}},"geometry":{"type":"Point","coordinates":[-70.594756831,-30.3883068979999]}},{"type":"Feature","properties":{"n":"agua_potable_rural","a":{"OBJECTID":"185","Cod_APR":"4010616","NR":"4","Region":"Región de Coquimbo","Provincia":"Elqui","Comuna":"Vicuña","Servicio":"COMITÉ","Nombre":"VARILLAR (VARILLAR-LAS MERCEDES)","Año":"1987","Arranques":"131","Estado":"CONCENTRADO","Ben_est":"524","ESTE":"352022","NORTE":"6686374","CLASE_SUEL":"0"}},"geometry":{"type":"Point","coordinates":[-70.533337748,-29.944517542]}},{"type":"Feature","properties":{"n":"agua_potable_rural","a":{"OBJECTID":"186","Cod_APR":"4020101","NR":"4","Region":"Región de Coquimbo","Provincia":"Choapa","Comuna":"Illapel","Servicio":"COMITÉ","Nombre":"CÁRCAMO-LA COLONIA (CÁRCAMO-LA COLONIA)","Año":"1979","Arranques":"264","Estado":"CONCENTRADO","Ben_est":"1056","ESTE":"303560","NORTE":"6503024","CLASE_SUEL":"0"}},"geometry":{"type":"Point","coordinates":[-71.07037229,-31.5911233159999]}},{"type":"Feature","properties":{"n":"agua_potable_rural","a":{"OBJECTID":"187","Cod_APR":"4020102","NR":"4","Region":"Región de Coquimbo","Provincia":"Choapa","Comuna":"Illapel","Servicio":"COMITÉ","Nombre":"HUINTIL","Año":"2001","Arranques":"98","Estado":"CONCENTRADO","Ben_est":"392","ESTE":"312397","NORTE":"6505587","CLASE_SUEL":"0"}},"geometry":{"type":"Point","coordinates":[-70.976795371,-31.5694877509999]}},{"type":"Feature","properties":{"n":"agua_potable_rural","a":{"OBJECTID":"188","Cod_APR":"4020103","NR":"4","Region":"Región de Coquimbo","Provincia":"Choapa","Comuna":"Illapel","Servicio":"COMITÉ","Nombre":"LAS CAÑAS DOS (LAS CAÑAS DOS-CHOAPA)","Año":"1998","Arranques":"196","Estado":"CONCENTRADO","Ben_est":"784","ESTE":"290753","NORTE":"6487249","CLASE_SUEL":"0"}},"geometry":{"type":"Point","coordinates":[-71.20863198,-31.73108615]}},{"type":"Feature","properties":{"n":"agua_potable_rural","a":{"OBJECTID":"189","Cod_APR":"4020104","NR":"4","Region":"Región de Coquimbo","Provincia":"Choapa","Comuna":"Illapel","Servicio":"COMITÉ","Nombre":"LAS CAÑAS UNO (LAS CAÑAS UNO-CANELILLO)","Año":"1998","Arranques":"295","Estado":"CONCENTRADO","Ben_est":"1180","ESTE":"286683","NORTE":"6487315","CLASE_SUEL":"0"}},"geometry":{"type":"Point","coordinates":[-71.251548977,-31.729739652]}},{"type":"Feature","properties":{"n":"agua_potable_rural","a":{"OBJECTID":"190","Cod_APR":"4020105","NR":"4","Region":"Región de Coquimbo","Provincia":"Choapa","Comuna":"Illapel","Servicio":"COMITÉ","Nombre":"LIMÁHUIDA","Año":"1999","Arranques":"85","Estado":"CONCENTRADO","Ben_est":"340","ESTE":"294715","NORTE":"6484886","CLASE_SUEL":"0"}},"geometry":{"type":"Point","coordinates":[-71.16733458,-31.753107937]}},{"type":"Feature","properties":{"n":"agua_potable_rural","a":{"OBJECTID":"191","Cod_APR":"4020106","NR":"4","Region":"Región de Coquimbo","Provincia":"Choapa","Comuna":"Illapel","Servicio":"COMITÉ","Nombre":"PERALILLO","Año":"1997","Arranques":"81","Estado":"CONCENTRADO","Ben_est":"324","ESTE":"300218","NORTE":"6486372","CLASE_SUEL":"0"}},"geometry":{"type":"Point","coordinates":[-71.1089658819999,-31.7406850099999]}},{"type":"Feature","properties":{"n":"agua_potable_rural","a":{"OBJECTID":"192","Cod_APR":"4020107","NR":"4","Region":"Región de Coquimbo","Provincia":"Choapa","Comuna":"Illapel","Servicio":"COMITÉ","Nombre":"PINTACURA SUR","Año":"2008","Arranques":"70","Estado":"CONCENTRADO","Ben_est":"280","ESTE":"291647","NORTE":"6488565","CLASE_SUEL":"0"}},"geometry":{"type":"Point","coordinates":[-71.198921335,-31.7193848389999]}},{"type":"Feature","properties":{"n":"agua_potable_rural","a":{"OBJECTID":"193","Cod_APR":"4020108","NR":"4","Region":"Región de Coquimbo","Provincia":"Choapa","Comuna":"Illapel","Servicio":"COMITÉ","Nombre":"SANTA VIRGINIA","Año":"2005","Arranques":"74","Estado":"CONCENTRADO","Ben_est":"296","ESTE":"325354","NORTE":"6507284","CLASE_SUEL":"0"}},"geometry":{"type":"Point","coordinates":[-70.8400275399999,-31.5562229999999]}},{"type":"Feature","properties":{"n":"agua_potable_rural","a":{"OBJECTID":"194","Cod_APR":"4020109","NR":"4","Region":"Región de Coquimbo","Provincia":"Choapa","Comuna":"Illapel","Servicio":"COMITÉ","Nombre":"SOCAVÓN","Año":"2001","Arranques":"151","Estado":"CONCENTRADO","Ben_est":"604","ESTE":"295338","NORTE":"6477383","CLASE_SUEL":"0"}},"geometry":{"type":"Point","coordinates":[-71.162335721,-31.8208642389999]}},{"type":"Feature","properties":{"n":"agua_potable_rural","a":{"OBJECTID":"195","Cod_APR":"4020110","NR":"4","Region":"Región de Coquimbo","Provincia":"Choapa","Comuna":"Illapel","Servicio":"COMITÉ","Nombre":"TUNGA NORTE","Año":"1983","Arranques":"36","Estado":"CONCENTRADO","Ben_est":"144","ESTE":"275835","NORTE":"6498493","CLASE_SUEL":"0"}},"geometry":{"type":"Point","coordinates":[-71.363412505,-31.626901382]}},{"type":"Feature","properties":{"n":"agua_potable_rural","a":{"OBJECTID":"196","Cod_APR":"4020111","NR":"4","Region":"Región de Coquimbo","Provincia":"Choapa","Comuna":"Illapel","Servicio":"COMITÉ","Nombre":"TUNGA SUR","Año":"1987","Arranques":"89","Estado":"CONCENTRADO","Ben_est":"356","ESTE":"276971","NORTE":"6496587","CLASE_SUEL":"0"}},"geometry":{"type":"Point","coordinates":[-71.351876665,-31.6443044879999]}},{"type":"Feature","properties":{"n":"agua_potable_rural","a":{"OBJECTID":"197","Cod_APR":"4020112","NR":"4","Region":"Región de Coquimbo","Provincia":"Choapa","Comuna":"Illapel","Servicio":"COMITÉ","Nombre":"EL MAITEN","Año":"2010","Arranques":"64","Estado":"SEMICONCENTRADO","Fondos":"Sectorial","Ben_est":"256","ESTE":"289410","NORTE":"6495561","CLASE_SUEL":"0"}},"geometry":{"type":"Point","coordinates":[-71.221011952,-31.6559034169999]}},{"type":"Feature","properties":{"n":"agua_potable_rural","a":{"OBJECTID":"198","Cod_APR":"4020113","NR":"4","Region":"Región de Coquimbo","Provincia":"Choapa","Comuna":"Illapel","Servicio":"COMITÉ","Nombre":"LAS COCINERAS","Año":"2010","Arranques":"35","Estado":"SEMICONCENTRADO","Fondos":"Sectorial","Ben_est":"140","ESTE":"298849","NORTE":"6499828","CLASE_SUEL":"0"}},"geometry":{"type":"Point","coordinates":[-71.1206483519999,-31.619124977]}},{"type":"Feature","properties":{"n":"agua_potable_rural","a":{"OBJECTID":"199","Cod_APR":"4020114","NR":"4","Region":"Región de Coquimbo","Provincia":"Choapa","Comuna":"Illapel","Servicio":"COMITÉ","Nombre":"LA CAPILLA","Año":"2012","Arranques":"50","Estado":"SEMICONCENTRADO","Fondos":"Sectorial","Ben_est":"200","ESTE":"319850","NORTE":"6505500","CLASE_SUEL":"0"}},"geometry":{"type":"Point","coordinates":[-70.898315587,-31.5714625599999]}},{"type":"Feature","properties":{"n":"agua_potable_rural","a":{"OBJECTID":"200","Cod_APR":"4020201","NR":"4","Region":"Región de Coquimbo","Provincia":"Choapa","Comuna":"Canela","Servicio":"COMITÉ","Nombre":"HUENTELAUQUÉN NORTE (HUENTEALUQUÉN BAJO-HUENTELAUQUÉN ALTO-LA CHIPANA)","Año":"1978","Arranques":"413","Estado":"CONCENTRADO","Ben_est":"1652","ESTE":"259160","NORTE":"6503176","CLASE_SUEL":"0"}},"geometry":{"type":"Point","coordinates":[-71.537932241,-31.581317167]}},{"type":"Feature","properties":{"n":"agua_potable_rural","a":{"OBJECTID":"201","Cod_APR":"4020202","NR":"4","Region":"Región de Coquimbo","Provincia":"Choapa","Comuna":"Canela","Servicio":"COMITÉ","Nombre":"HUENTELAUQUÉN SUR (HUENTELAUQUÉN-HACIENDA MILLAHUE)","Año":"1993","Arranques":"195","Estado":"CONCENTRADO","Ben_est":"780","ESTE":"261306","NORTE":"6500406","CLASE_SUEL":"0"}},"geometry":{"type":"Point","coordinates":[-71.51600812,-31.606732032]}},{"type":"Feature","properties":{"n":"agua_potable_rural","a":{"OBJECTID":"202","Cod_APR":"4020203","NR":"4","Region":"Región de Coquimbo","Provincia":"Choapa","Comuna":"Canela","Servicio":"COMITÉ","Nombre":"LOS POZOS","Año":"2001","Arranques":"62","Estado":"CONCENTRADO","Ben_est":"248","ESTE":"285015","NORTE":"6527943","CLASE_SUEL":"0"}},"geometry":{"type":"Point","coordinates":[-71.2602934129999,-31.3631504419999]}},{"type":"Feature","properties":{"n":"agua_potable_rural","a":{"OBJECTID":"203","Cod_APR":"4020204","NR":"4","Region":"Región de Coquimbo","Provincia":"Choapa","Comuna":"Canela","Servicio":"COMITÉ","Nombre":"LOS RULOS","Año":"2004","Arranques":"74","Estado":"CONCENTRADO","Ben_est":"296","ESTE":"286261","NORTE":"6541799","CLASE_SUEL":"0"}},"geometry":{"type":"Point","coordinates":[-71.2442377689999,-31.2384569439999]}},{"type":"Feature","properties":{"n":"agua_potable_rural","a":{"OBJECTID":"204","Cod_APR":"4020205","NR":"4","Region":"Región de Coquimbo","Provincia":"Choapa","Comuna":"Canela","Servicio":"COMITÉ","Nombre":"MINCHA NORTE","Año":"1977","Arranques":"179","Estado":"CONCENTRADO","Ben_est":"716","ESTE":"268667","NORTE":"6502635","CLASE_SUEL":"0"}},"geometry":{"type":"Point","coordinates":[-71.43795492,-31.588143873]}},{"type":"Feature","properties":{"n":"agua_potable_rural","a":{"OBJECTID":"205","Cod_APR":"4020206","NR":"4","Region":"Región de Coquimbo","Provincia":"Choapa","Comuna":"Canela","Servicio":"COMITÉ","Nombre":"MINCHA SUR","Año":"1983","Arranques":"126","Estado":"CONCENTRADO","Ben_est":"504","ESTE":"268993","NORTE":"6501241","CLASE_SUEL":"0"}},"geometry":{"type":"Point","coordinates":[-71.4348489659999,-31.600775181]}},{"type":"Feature","properties":{"n":"agua_potable_rural","a":{"OBJECTID":"206","Cod_APR":"4020207","NR":"4","Region":"Región de Coquimbo","Provincia":"Choapa","Comuna":"Canela","Servicio":"COMITÉ","Nombre":"CARQUINDAÑO","Año":"2010","Arranques":"36","Estado":"SEMICONCENTRADO","Fondos":"Sectorial","Ben_est":"144","ESTE":"270259","NORTE":"6515904","CLASE_SUEL":"0"}},"geometry":{"type":"Point","coordinates":[-71.418104392,-31.468850623]}},{"type":"Feature","properties":{"n":"agua_potable_rural","a":{"OBJECTID":"207","Cod_APR":"4020301","NR":"4","Region":"Región de Coquimbo","Provincia":"Choapa","Comuna":"Los Vilos","Servicio":"COMITÉ","Nombre":"CAIMANES","Año":"1972","Arranques":"290","Estado":"CONCENTRADO","Ben_est":"1160","ESTE":"298269","NORTE":"6465756","CLASE_SUEL":"0"}},"geometry":{"type":"Point","coordinates":[-71.133802488,-31.926212365]}},{"type":"Feature","properties":{"n":"agua_potable_rural","a":{"OBJECTID":"208","Cod_APR":"4020302","NR":"4","Region":"Región de Coquimbo","Provincia":"Choapa","Comuna":"Los Vilos","Servicio":"COMITÉ","Nombre":"EL ESFUERZO (SECTOR ALTO PICHIDANGUI)","Año":"1985","Arranques":"548","Estado":"CONCENTRADO","Ben_est":"2192","ESTE":"265413","NORTE":"6442998","CLASE_SUEL":"0"}},"geometry":{"type":"Point","coordinates":[-71.486614574,-32.12502575]}},{"type":"Feature","properties":{"n":"agua_potable_rural","a":{"OBJECTID":"209","Cod_APR":"4020303","NR":"4","Region":"Región de Coquimbo","Provincia":"Choapa","Comuna":"Los Vilos","Servicio":"COMITÉ","Nombre":"GUANGUALÍ","Año":"1996","Arranques":"178","Estado":"CONCENTRADO","Ben_est":"712","ESTE":"278604","NORTE":"6443131","CLASE_SUEL":"0"}},"geometry":{"type":"Point","coordinates":[-71.346863277,-32.1264954879999]}},{"type":"Feature","properties":{"n":"agua_potable_rural","a":{"OBJECTID":"210","Cod_APR":"4020304","NR":"4","Region":"Región de Coquimbo","Provincia":"Choapa","Comuna":"Los Vilos","Servicio":"COMITÉ","Nombre":"LOS CÓNDORES","Año":"1997","Arranques":"82","Estado":"CONCENTRADO","Ben_est":"328","ESTE":"275936","NORTE":"6442707","CLASE_SUEL":"0"}},"geometry":{"type":"Point","coordinates":[-71.3752232269999,-32.1297900609999]}},{"type":"Feature","properties":{"n":"agua_potable_rural","a":{"OBJECTID":"211","Cod_APR":"4020305","NR":"4","Region":"Región de Coquimbo","Provincia":"Choapa","Comuna":"Los Vilos","Servicio":"COOPERATIVA","Nombre":"QUILIMARÍ","Año":"1967","Arranques":"1400","Estado":"CONCENTRADO","Ben_est":"5600","ESTE":"265023","NORTE":"6443256","CLASE_SUEL":"0"}},"geometry":{"type":"Point","coordinates":[-71.490682009,-32.122619132]}},{"type":"Feature","properties":{"n":"agua_potable_rural","a":{"OBJECTID":"212","Cod_APR":"4020401","NR":"4","Region":"Región de Coquimbo","Provincia":"Choapa","Comuna":"Salamanca","Servicio":"COMITÉ","Nombre":"ARBOLEDA GRANDE (ARBOLEDA GRANDE-CUNLAGUA-EL TEBAL-GUANQUE-CANCHA BRAVA-EL BOLDO)","Año":"1991","Arranques":"642","Estado":"CONCENTRADO","Ben_est":"2568","ESTE":"319682","NORTE":"6487116","CLASE_SUEL":"0"}},"geometry":{"type":"Point","coordinates":[-70.90346212,-31.737210623]}},{"type":"Feature","properties":{"n":"agua_potable_rural","a":{"OBJECTID":"213","Cod_APR":"4020402","NR":"4","Region":"Región de Coquimbo","Provincia":"Choapa","Comuna":"Salamanca","Servicio":"COMITÉ","Nombre":"BATUCO","Año":"1970","Arranques":"163","Estado":"CONCENTRADO","Ben_est":"652","ESTE":"348002","NORTE":"6463914","CLASE_SUEL":"0"}},"geometry":{"type":"Point","coordinates":[-70.608249004,-31.950571483]}},{"type":"Feature","properties":{"n":"agua_potable_rural","a":{"OBJECTID":"214","Cod_APR":"4020403","NR":"4","Region":"Región de Coquimbo","Provincia":"Choapa","Comuna":"Salamanca","Servicio":"COMITÉ","Nombre":"CHILLEPÍN","Año":"1970","Arranques":"504","Estado":"CONCENTRADO","Ben_est":"2016","ESTE":"336759","NORTE":"6471615","CLASE_SUEL":"0"}},"geometry":{"type":"Point","coordinates":[-70.7258660529999,-31.879563081]}},{"type":"Feature","properties":{"n":"agua_potable_rural","a":{"OBJECTID":"215","Cod_APR":"4020404","NR":"4","Region":"Región de Coquimbo","Provincia":"Choapa","Comuna":"Salamanca","Servicio":"COMITÉ","Nombre":"CHUCHIÑÍ","Año":"1996","Arranques":"207","Estado":"CONCENTRADO","Ben_est":"828","ESTE":"303464","NORTE":"6486872","CLASE_SUEL":"0"}},"geometry":{"type":"Point","coordinates":[-71.074618823,-31.736739256]}},{"type":"Feature","properties":{"n":"agua_potable_rural","a":{"OBJECTID":"216","Cod_APR":"4020405","NR":"4","Region":"Región de Coquimbo","Provincia":"Choapa","Comuna":"Salamanca","Servicio":"COMITÉ","Nombre":"COIRÓN","Año":"1970","Arranques":"162","Estado":"CONCENTRADO","Ben_est":"648","ESTE":"332511","NORTE":"6468721","CLASE_SUEL":"0"}},"geometry":{"type":"Point","coordinates":[-70.771259621,-31.90504261]}},{"type":"Feature","properties":{"n":"agua_potable_rural","a":{"OBJECTID":"217","Cod_APR":"4020406","NR":"4","Region":"Región de Coquimbo","Provincia":"Choapa","Comuna":"Salamanca","Servicio":"COMITÉ","Nombre":"COLLIGUAY","Año":"1970","Arranques":"89","Estado":"CONCENTRADO","Ben_est":"356","ESTE":"308947","NORTE":"6477015","CLASE_SUEL":"0"}},"geometry":{"type":"Point","coordinates":[-71.018702392,-31.826543881]}},{"type":"Feature","properties":{"n":"agua_potable_rural","a":{"OBJECTID":"218","Cod_APR":"4020407","NR":"4","Region":"Región de Coquimbo","Provincia":"Choapa","Comuna":"Salamanca","Servicio":"COMITÉ","Nombre":"CUNCUMÉN","Año":"1985","Arranques":"284","Estado":"CONCENTRADO","Ben_est":"1136","ESTE":"346990","NORTE":"6470001","CLASE_SUEL":"0"}},"geometry":{"type":"Point","coordinates":[-70.617991409,-31.895540968]}},{"type":"Feature","properties":{"n":"agua_potable_rural","a":{"OBJECTID":"219","Cod_APR":"4020408","NR":"4","Region":"Región de Coquimbo","Provincia":"Choapa","Comuna":"Salamanca","Servicio":"COMITÉ","Nombre":"EL ARRAYÁN (EL ARRAYÁN-EL PALQUIAL-CRUCESITA LA MAJADA)","Año":"2000","Arranques":"86","Estado":"CONCENTRADO","Ben_est":"344","ESTE":"314580","NORTE":"6470831","CLASE_SUEL":"0"}},"geometry":{"type":"Point","coordinates":[-70.960393054,-31.883233479]}},{"type":"Feature","properties":{"n":"agua_potable_rural","a":{"OBJECTID":"220","Cod_APR":"4020409","NR":"4","Region":"Región de Coquimbo","Provincia":"Choapa","Comuna":"Salamanca","Servicio":"COMITÉ","Nombre":"EL QUEÑE","Año":"1970","Arranques":"96","Estado":"CONCENTRADO","Ben_est":"384","ESTE":"314236","NORTE":"6479945","CLASE_SUEL":"0"}},"geometry":{"type":"Point","coordinates":[-70.9622873289999,-31.800998923]}},{"type":"Feature","properties":{"n":"agua_potable_rural","a":{"OBJECTID":"221","Cod_APR":"4020410","NR":"4","Region":"Región de Coquimbo","Provincia":"Choapa","Comuna":"Salamanca","Servicio":"COMITÉ","Nombre":"EL TAMBO","Año":"1970","Arranques":"377","Estado":"CONCENTRADO","Ben_est":"1508","ESTE":"309055","NORTE":"6481694","CLASE_SUEL":"0"}},"geometry":{"type":"Point","coordinates":[-71.016644845,-31.784373865]}},{"type":"Feature","properties":{"n":"agua_potable_rural","a":{"OBJECTID":"222","Cod_APR":"4020411","NR":"4","Region":"Región de Coquimbo","Provincia":"Choapa","Comuna":"Salamanca","Servicio":"COMITÉ","Nombre":"EL TAMBO ORIENTE","Año":"1998","Arranques":"109","Estado":"CONCENTRADO","Ben_est":"436","ESTE":"310141","NORTE":"6480453","CLASE_SUEL":"0"}},"geometry":{"type":"Point","coordinates":[-71.005422838,-31.795744519]}},{"type":"Feature","properties":{"n":"agua_potable_rural","a":{"OBJECTID":"223","Cod_APR":"4020412","NR":"4","Region":"Región de Coquimbo","Provincia":"Choapa","Comuna":"Salamanca","Servicio":"COMITÉ","Nombre":"JORQUERA","Año":"1983","Arranques":"121","Estado":"CONCENTRADO","Ben_est":"484","ESTE":"321885","NORTE":"6477569","CLASE_SUEL":"0"}},"geometry":{"type":"Point","coordinates":[-70.881960936,-31.823643434]}},{"type":"Feature","properties":{"n":"agua_potable_rural","a":{"OBJECTID":"224","Cod_APR":"4030314","NR":"4","Region":"Región de Coquimbo","Provincia":"Limarí","Comuna":"Punitaqui","Servicio":"COMITÉ","Nombre":"LAS RAMADAS DE PEJERREYES (LAS RAMADAS DE TULAHUÉN-PEJERREYES)","Año":"1998","Arranques":"153","Estado":"CONCENTRADO","Ben_est":"612","ESTE":"284731","NORTE":"6591009","CLASE_SUEL":"0"}},"geometry":{"type":"Point","coordinates":[-71.2498387909999,-30.7944889249999]}},{"type":"Feature","properties":{"n":"agua_potable_rural","a":{"OBJECTID":"225","Cod_APR":"4020414","NR":"4","Region":"Región de Coquimbo","Provincia":"Choapa","Comuna":"Salamanca","Servicio":"COMITÉ","Nombre":"LLIMPO","Año":"1970","Arranques":"175","Estado":"CONCENTRADO","Ben_est":"700","ESTE":"325915","NORTE":"6475410","CLASE_SUEL":"0"}},"geometry":{"type":"Point","coordinates":[-70.8397853019999,-31.8437344829999]}},{"type":"Feature","properties":{"n":"agua_potable_rural","a":{"OBJECTID":"226","Cod_APR":"4020415","NR":"4","Region":"Región de Coquimbo","Provincia":"Choapa","Comuna":"Salamanca","Servicio":"COMITÉ","Nombre":"PANGUESILLO","Año":"1970","Arranques":"215","Estado":"CONCENTRADO","Ben_est":"860","ESTE":"323762","NORTE":"6475481","CLASE_SUEL":"0"}},"geometry":{"type":"Point","coordinates":[-70.862515807,-31.842763202]}},{"type":"Feature","properties":{"n":"agua_potable_rural","a":{"OBJECTID":"227","Cod_APR":"4020416","NR":"4","Region":"Región de Coquimbo","Provincia":"Choapa","Comuna":"Salamanca","Servicio":"COMITÉ","Nombre":"PELADEROS (PELADEROS-CAMISAS)","Año":"2003","Arranques":"109","Estado":"CONCENTRADO","Ben_est":"436","ESTE":"318246","NORTE":"6460008","CLASE_SUEL":"0"}},"geometry":{"type":"Point","coordinates":[-70.9236841749999,-31.981414162]}},{"type":"Feature","properties":{"n":"agua_potable_rural","a":{"OBJECTID":"228","Cod_APR":"4020417","NR":"4","Region":"Región de Coquimbo","Provincia":"Choapa","Comuna":"Salamanca","Servicio":"COMITÉ","Nombre":"PUNTA NUEVA","Año":"1970","Arranques":"85","Estado":"CONCENTRADO","Ben_est":"340","ESTE":"329009","NORTE":"6469662","CLASE_SUEL":"0"}},"geometry":{"type":"Point","coordinates":[-70.8081130479999,-31.896035668]}},{"type":"Feature","properties":{"n":"agua_potable_rural","a":{"OBJECTID":"229","Cod_APR":"4020418","NR":"4","Region":"Región de Coquimbo","Provincia":"Choapa","Comuna":"Salamanca","Servicio":"COMITÉ","Nombre":"QUELÉN ALTO","Año":"1984","Arranques":"123","Estado":"CONCENTRADO","Ben_est":"492","ESTE":"326145","NORTE":"6468568","CLASE_SUEL":"0"}},"geometry":{"type":"Point","coordinates":[-70.8385808209999,-31.905466211]}},{"type":"Feature","properties":{"n":"agua_potable_rural","a":{"OBJECTID":"230","Cod_APR":"4020419","NR":"4","Region":"Región de Coquimbo","Provincia":"Choapa","Comuna":"Salamanca","Servicio":"COMITÉ","Nombre":"QUELÉN BAJO","Año":"1988","Arranques":"125","Estado":"CONCENTRADO","Ben_est":"500","ESTE":"325906","NORTE":"6473030","CLASE_SUEL":"0"}},"geometry":{"type":"Point","coordinates":[-70.840306708,-31.8651944059999]}},{"type":"Feature","properties":{"n":"agua_potable_rural","a":{"OBJECTID":"231","Cod_APR":"4020420","NR":"4","Region":"Región de Coquimbo","Provincia":"Choapa","Comuna":"Salamanca","Servicio":"COMITÉ","Nombre":"SAN AGUSTÍN","Año":"1992","Arranques":"139","Estado":"CONCENTRADO","Ben_est":"556","ESTE":"326930","NORTE":"6487448","CLASE_SUEL":"0"}},"geometry":{"type":"Point","coordinates":[-70.826926331,-31.7353364159999]}},{"type":"Feature","properties":{"n":"agua_potable_rural","a":{"OBJECTID":"232","Cod_APR":"4020421","NR":"4","Region":"Región de Coquimbo","Provincia":"Choapa","Comuna":"Salamanca","Servicio":"COMITÉ","Nombre":"TAHUINCO","Año":"1970","Arranques":"240","Estado":"CONCENTRADO","Ben_est":"960","ESTE":"304205","NORTE":"6480885","CLASE_SUEL":"0"}},"geometry":{"type":"Point","coordinates":[-71.068001884,-31.790846648]}},{"type":"Feature","properties":{"n":"agua_potable_rural","a":{"OBJECTID":"233","Cod_APR":"4020422","NR":"4","Region":"Región de Coquimbo","Provincia":"Choapa","Comuna":"Salamanca","Servicio":"COMITÉ","Nombre":"TRANQUILLA","Año":"1970","Arranques":"292","Estado":"CONCENTRADO","Ben_est":"1168","ESTE":"341298","NORTE":"6469049","CLASE_SUEL":"0"}},"geometry":{"type":"Point","coordinates":[-70.678315112,-31.9033458119999]}},